,balconies,bathroom,facing,floor,furnishingDesc,locality,gym,isMaintenance,lift,maintenanceAmount,parking,property_age,property_size,rent_amount,totalFloor,type_bhk,waterSupply,location,lat,long
0,3,3,W,3,Semi,Gachibowli,False,True,True,2000,BOTH,5,2200,28000,5,BHK3,CORP_BORE,"17.465080245131944000,78.340134322090170000",17.465080245131944,78.34013432209017
1,1,2,E,2,Unfurnished,Chandrayangutta,False,False,False,0,TWO_WHEELER,1,1200,15000,2,BHK3,BOREWELL,"17.320233889090165000,78.467765880356640000",17.320233889090165,78.46776588035664
2,3,3,E,0,Semi,Manikonda,True,True,True,1000,BOTH,0,1800,16000,3,BHK3,CORP_BORE,"17.403649100000000000,78.379442099999990000",17.4036491,78.37944209999999
3,1,2,W,2,Unfurnished,LB Nagar,False,True,False,500,BOTH,0,750,9000,2,BHK2,CORP_BORE,"17.344879513537210000,78.543747203913100000",17.34487951353721,78.5437472039131
4,2,2,E,2,Semi,HITEC City,False,True,True,2000,BOTH,5,1250,32500,5,BHK2,CORP_BORE,"17.446462661725686000,78.378910474868770000",17.446462661725686,78.37891047486877
5,3,3,N,5,Semi,Kondapur,True,True,True,2700,BOTH,1,1517,33000,6,BHK3,CORP_BORE,"17.465643700000000000,78.341822400000000000",17.4656437,78.3418224
6,1,2,E,20,Semi,Gachibowli,True,True,True,4800,BOTH,5,1198,29000,24,BHK3,CORP_BORE,"17.423191000000000000,78.340685000000000000",17.423191,78.340685
7,2,2,E,2,Unfurnished,Vignanpuri Colony,False,False,False,0,BOTH,0,1000,9500,3,BHK2,CORPORATION,"17.312725000000000000,78.557010400000000000",17.312725,78.5570104
8,0,3,N,0,Semi,A. S. Rao Nagar,False,True,False,1000,BOTH,5,1800,21000,2,BHK3,BOREWELL,"17.475442049093058000,78.552138505135660000",17.475442049093058,78.55213850513566
9,2,2,SW,5,Unfurnished,Toli Chowki,False,False,True,0,TWO_WHEELER,1,950,14000,6,BHK2,CORP_BORE,"17.397796600000000000,78.405159500000000000",17.3977966,78.4051595
10,1,2,N,2,Semi, Yousufguda,False,True,False,800,BOTH,1,950,14500,4,BHK2,CORP_BORE,"17.438014505102192000,78.425039428442000000",17.438014505102192,78.425039428442
11,1,1,N,1,Unfurnished,Rahmat Nagar,False,True,False,500,TWO_WHEELER,1,900,10500,2,BHK1,CORPORATION,"17.441295869962280000,78.421321108598280000",17.44129586996228,78.42132110859828
12,2,2,W,4,Semi,Miyapur,True,True,True,3000,FOUR_WHEELER,5,1750,20000,13,BHK3,CORP_BORE,"17.504042000000000000,78.364449000000000000",17.504042,78.364449
13,2,3,E,0,Semi,Kompally,False,False,False,0,BOTH,5,2800,30000,1,BHK3,CORP_BORE,"17.529340000000000000,78.486572000000000000",17.52934,78.486572
14,1,1,N,2,Semi,"HUDA Colony, Chanda Nagar",False,False,True,0,TWO_WHEELER,1,700,10000,2,BHK1,CORP_BORE,"17.489572888248485000,78.330087566131600000",17.489572888248485,78.3300875661316
15,2,4,W,3,Full,Gachibowli,True,True,True,5000,TWO_WHEELER,7,3200,50000,5,BHK4,CORP_BORE,"17.429366000000000000,78.370818100000000000",17.429366,78.3708181
16,2,2,E,3,Full,Mehdipatnam,False,False,False,0,BOTH,1,1100,20000,3,BHK2,CORP_BORE,"17.385517000000000000,78.432957199999990000",17.385517,78.43295719999999
17,1,2,N,4,Semi, HITEC City,False,True,True,2000,BOTH,10,1100,21000,5,BHK2,CORP_BORE,"17.456782400000000000,78.372426699999990000",17.4567824,78.37242669999999
18,2,3,N,3,Semi,Manikonda,False,True,True,2100,BOTH,5,1650,23000,5,BHK3,CORP_BORE,"17.410135811963535000,78.384778462565600000",17.410135811963535,78.3847784625656
19,1,2,W,3,Semi,Kukatpally,False,True,False,2000,BOTH,10,1100,18000,3,BHK2,CORP_BORE,"17.494980604777770000,78.394912845230110000",17.49498060477777,78.39491284523011
20,1,2,E,1,Semi,Secunderabad,False,True,False,700,FOUR_WHEELER,10,1800,20000,2,BHK2,CORP_BORE,"17.452457500000000000,78.495509099999990000",17.4524575,78.49550909999999
21,1,2,E,1,Semi,Secunderabad,False,True,False,700,FOUR_WHEELER,10,1800,20000,2,BHK2,CORP_BORE,"17.452457500000000000,78.495509099999990000",17.4524575,78.49550909999999
22,3,3,E,13,Semi,Hafeezpet,True,True,True,5000,BOTH,0,2000,28000,14,BHK3,CORP_BORE,"17.484030500000000000,78.358810499999990000",17.4840305,78.35881049999999
23,2,2,W,1,Semi,Saidabad ,False,True,True,1200,BOTH,5,1500,20000,5,BHK3,CORP_BORE,"17.359242591095942000,78.514172444776960000",17.359242591095942,78.51417244477696
24,2,3,None,1,Semi,Banjara Hills,False,True,False,5000,FOUR_WHEELER,5,1850,40000,3,BHK3,CORP_BORE,"17.421308779437920000,78.437636921040340000",17.42130877943792,78.43763692104034
25,1,2,None,2,Full,Himayath Nagar,False,True,False,1000,TWO_WHEELER,10,1000,19000,4,BHK2,CORP_BORE,"17.402715000000000000,78.480531000000000000",17.402715,78.480531
26,0,2,E,5,Unfurnished,Upperpally,False,True,True,1000,BOTH,0,900,10000,5,BHK2,CORP_BORE,"17.367701159703827000,78.418425750306350000",17.367701159703827,78.41842575030635
27,3,3,E,3,Unfurnished,Shaikpet,False,True,True,500,BOTH,0,1625,16000,3,BHK3,CORP_BORE,"17.407010589866303000,78.391946844791970000",17.407010589866303,78.39194684479197
28,1,2,N,3,Semi,Upparpally Road,False,True,True,1500,FOUR_WHEELER,0,1150,16000,4,BHK2,CORP_BORE,"17.360634300000033000,78.419940435581950000",17.360634300000033,78.41994043558195
29,0,2,N,0,Full,Bandlaguda Jagir,False,True,False,1000,BOTH,1,1400,20000,2,BHK2,CORP_BORE,"17.362644221007837000,78.393296331738280000",17.362644221007837,78.39329633173828
30,2,3,E,1,Full,Banjara Hills,True,True,True,7000,BOTH,10,2800,50000,7,BHK3,CORP_BORE,"17.426053900000000000,78.435238700000000000",17.4260539,78.4352387
31,3,3,N,1,Semi,Kukatpally,False,True,False,3000,BOTH,5,2250,30000,1,BHK3,CORPORATION,"17.492878000000000000,78.402504999999990000",17.492878,78.40250499999999
32,1,2,SW,6,Full,Gajularamaram,True,True,True,2500,BOTH,3,1450,14500,9,BHK2,CORP_BORE,"17.530033000000000000,78.428865600000000000",17.530033,78.4288656
33,2,3,W,1,Semi,Dammaiguda,False,False,False,0,BOTH,5,2000,15000,2,BHK3,CORPORATION,"17.496486600000000000,78.595552099999990000",17.4964866,78.59555209999999
34,1,2,E,3,Unfurnished,Kukatpally,False,True,True,2000,BOTH,5,1040,15000,5,BHK2,CORP_BORE,"17.494359000000000000,78.387429300000000000",17.494359,78.3874293
35,2,3,E,5,Full,Hitec City,False,True,True,2500,BOTH,10,1965,38000,5,BHK3,CORP_BORE,"17.455379400000000000,78.369762900000000000",17.4553794,78.3697629
36,0,5,None,14,Semi,Kokapet,True,True,True,6000,BOTH,0,2630,55000,18,BHK4,None,"17.388023796977812000,78.348831701258060000",17.388023796977812,78.34883170125806
37,1,2,N,5,Semi,Himayatnagar,False,True,True,3000,BOTH,10,950,20000,5,BHK2,CORP_BORE,"17.409338000000000000,78.480827200000000000",17.409338,78.4808272
38,1,2,W,3,Semi,Attapur,False,True,True,1500,BOTH,1,1250,16000,4,BHK2,CORP_BORE,"17.364799000000000000,78.433844299999990000",17.364799,78.43384429999999
39,2,3,NE,1,Semi,West Marredpally,False,True,True,2500,BOTH,5,1750,33000,5,BHK3,CORP_BORE,"17.452390600000000000,78.506002900000000000",17.4523906,78.5060029
40,3,3,W,11,Semi,Kokapet,False,True,True,6200,BOTH,1,2490,40000,14,BHK3,CORPORATION,"17.395793651397756000,78.339090500216260000",17.395793651397756,78.33909050021626
41,2,3,E,2,Semi,Miyapur,False,True,True,1000,BOTH,5,1650,18000,4,BHK3,BOREWELL,"17.499047938899835000,78.340468233729540000",17.499047938899835,78.34046823372954
42,2,3,E,2,Semi,Miyapur,False,True,True,1000,BOTH,5,1650,18000,4,BHK3,BOREWELL,"17.499047938899835000,78.340468233729540000",17.499047938899835,78.34046823372954
43,1,2,W,5,Semi,Kondapur,False,True,True,2000,BOTH,5,1570,27000,5,BHK3,CORP_BORE,"17.467344500000000000,78.349111700000000000",17.4673445,78.3491117
44,3,2,E,5,Semi,Masjid Banda,False,True,True,2000,BOTH,1,1270,22000,5,BHK2,BOREWELL,"17.470091900000000000,78.344219600000000000",17.4700919,78.3442196
45,2,3,E,1,Semi,Hi Tech City,True,True,True,3000,BOTH,3,1621,25000,5,BHK3,CORP_BORE,"17.463085500000000000,78.370873100000000000",17.4630855,78.3708731
46,2,2,S,2,Semi,Shaikpet,False,True,True,2000,BOTH,0,1200,20000,4,BHK2,CORP_BORE,"17.409515828599126000,78.400039433135220000",17.409515828599126,78.40003943313522
47,1,2,N,5,Semi,Kukatpally,False,True,True,2000,BOTH,0,1250,18000,5,BHK3,CORP_BORE,"17.505638447933567000,78.399735679762240000",17.505638447933567,78.39973567976224
48,2,3,E,1,Semi,Bowenpally,False,True,False,500,BOTH,10,2800,30000,2,BHK3,CORP_BORE,"17.468590100000000000,78.481064800000000000",17.4685901,78.4810648
49,1,2,NE,2,Semi,Puppalguda,False,True,True,2000,BOTH,0,1300,16000,6,BHK3,BOREWELL,"17.397804813528147000,78.387348423942560000",17.397804813528147,78.38734842394256
50,1,2,NE,5,Full,Kondapur,False,True,True,2000,FOUR_WHEELER,10,1215,30000,5,BHK2,CORP_BORE,"17.469052300000000000,78.369067700000000000",17.4690523,78.3690677
51,1,2,E,1,Semi,Madinaguda,False,True,True,2000,BOTH,10,1300,16000,5,BHK3,CORP_BORE,"17.496253100000000000,78.339019700000000000",17.4962531,78.3390197
52,2,2,W,2,Semi,Kukatpally,False,True,True,2100,BOTH,5,1150,18000,4,BHK2,CORP_BORE,"17.488988419099060000,78.388937812689200000",17.48898841909906,78.3889378126892
53,1,2,E,5,Semi,Nizampet Road,True,False,True,0,BOTH,5,1405,20000,5,BHK3,CORP_BORE,"17.499153499999990000,78.389548400000000000",17.49915349999999,78.3895484
54,1,2,E,9,Semi,Nanakramguda,False,True,True,5000,BOTH,0,1283,30000,33,BHK2,CORP_BORE,"17.426628700000000000,78.341124099999990000",17.4266287,78.34112409999999
55,2,2,E,2,Full,Himayatnagar,False,True,True,1500,BOTH,10,1200,20000,4,BHK2,CORP_BORE,"17.403075800000000000,78.488599600000000000",17.4030758,78.4885996
56,2,2,W,11,Semi,Whitefields,False,True,True,4600,BOTH,3,1844,32000,15,BHK3,CORP_BORE,"17.455309100000000000,78.364441800000000000",17.4553091,78.3644418
57,1,2,W,1,Unfurnished,Somajiguda,False,True,True,1200,BOTH,10,850,19000,5,BHK2,CORP_BORE,"17.424837068143564000,78.454355742703190000",17.424837068143564,78.45435574270319
58,1,1,W,2,Unfurnished,Chanda Nagar,False,False,False,0,BOTH,0,750,9500,2,BHK1,CORP_BORE,"17.493959000000000000,78.328743000000000000",17.493959,78.328743
59,1,2,N,3,Full,Y S Rajasekhara Reddy Statue,False,False,True,0,TWO_WHEELER,1,800,24000,5,BHK2,CORPORATION,"17.451121999999990000,78.391157400000000000",17.45112199999999,78.3911574
60,2,2,E,8,Full,Gopanpally,True,True,True,3500,FOUR_WHEELER,5,1220,22000,10,BHK2,BOREWELL,"17.455607900000000000,78.300909500000020000",17.4556079,78.30090950000002
61,3,3,E,5,Semi,Gachibowli,True,True,True,4500,BOTH,1,1690,38000,14,BHK3,CORP_BORE,"17.432485700000000000,78.330765000000000000",17.4324857,78.330765
62,3,2,E,1,Unfurnished,Banjara Hills,False,False,True,0,BOTH,10,1500,30000,4,BHK3,CORPORATION,"17.421148600000000000,78.443390700000000000",17.4211486,78.4433907
63,3,2,E,1,Unfurnished,Banjara Hills,False,False,True,0,BOTH,10,1500,30000,4,BHK3,CORPORATION,"17.421148600000000000,78.443390700000000000",17.4211486,78.4433907
64,0,2,E,5,Semi,Madhapur  ,False,True,True,2200,BOTH,10,920,20000,6,BHK2,BOREWELL,"17.436124535845227000,78.393957732287920000",17.436124535845227,78.39395773228792
65,2,3,W,0,Semi,Kondapur,True,True,True,3800,BOTH,0,2093,27500,7,BHK3,CORP_BORE,"17.460903558606660000,78.344214550926200000",17.46090355860666,78.3442145509262
66,3,2,E,1,Semi,Chintalakunta,False,True,False,500,BOTH,0,2000,13000,1,BHK2,CORP_BORE,"17.339150136813696000,78.566089865081760000",17.339150136813696,78.56608986508176
67,1,3,E,1,Semi,Nallagandla Huda,True,True,True,4000,BOTH,0,1700,25000,5,BHK3,CORP_BORE,"17.482398300000000000,78.302351800000000000",17.4823983,78.3023518
68,2,2,E,2,Semi,Vanasthalipuram,False,True,True,1000,BOTH,0,1175,16000,3,BHK2,CORP_BORE,"17.341096700000000000,78.565082700000000000",17.3410967,78.5650827
69,2,3,W,1,Semi,Madhapur,False,True,True,4000,BOTH,0,2150,38000,5,BHK3,CORP_BORE,"17.456735526472254000,78.386309441910700000",17.456735526472254,78.3863094419107
70,2,2,E,5,Semi,Madhapur,False,True,True,2000,BOTH,0,1200,22000,5,BHK2,CORP_BORE,"17.456746284381246000,78.386325230130210000",17.456746284381246,78.38632523013021
71,2,3,NW,2,Semi,Peerancheruvu,True,True,True,4000,BOTH,1,1628,27000,20,BHK3,CORP_BORE,"17.359475600000000000,78.372134400000000000",17.3594756,78.3721344
72,1,3,E,2,Semi,Bandlaguda,False,True,True,1500,BOTH,3,1620,15000,5,BHK3,CORP_BORE,"17.368221000000000000,78.395393000000000000",17.368221,78.395393
73,2,3,None,15,Semi,NARSINGI,True,False,True,0,BOTH,0,1835,41000,30,BHK3,CORPORATION,"17.398804000000000000,78.355502000000000000",17.398804,78.355502
74,1,3,NE,2,Semi,Manikonda,False,True,True,1500,BOTH,5,1580,22000,4,BHK3,CORP_BORE,"17.411487872768948000,78.382296001153930000",17.411487872768948,78.38229600115393
75,2,2,W,1,Semi,Kondapur,True,True,True,2000,BOTH,1,1270,22000,5,BHK2,CORPORATION,"17.468177700000000000,78.363234499999990000",17.4681777,78.36323449999999
76,2,2,NE,1,Semi,Musheerabad,False,True,True,1500,BOTH,0,1100,17999,5,BHK2,CORP_BORE,"17.415108546005676000,78.500642580651640000",17.415108546005676,78.50064258065164
77,2,1,W,2,Semi,Alai Balai Chowrastha,False,False,False,0,BOTH,0,600,10500,3,BHK1,BOREWELL,"17.442539500000000000,78.334463399999990000",17.4425395,78.33446339999999
78,3,2,W,1,Semi,Alai Balai Chowrastha,False,False,False,0,BOTH,-1,1200,18000,3,BHK2,CORP_BORE,"17.442539500000000000,78.334463399999990000",17.4425395,78.33446339999999
79,2,3,E,1,Semi,Kondapur,True,True,True,3500,BOTH,5,2300,40000,5,BHK3,CORP_BORE,"17.458285600000000000,78.371065300000000000",17.4582856,78.3710653
80,1,3,W,11,Semi,Gachibowli,True,True,True,5400,FOUR_WHEELER,3,2160,38000,17,BHK3,CORP_BORE,"17.432393000000000000,78.331047000000000000",17.432393,78.331047
81,1,3,E,3,Semi,Narsingi,False,True,True,2500,BOTH,1,1600,19000,5,BHK3,CORP_BORE,"17.375151000000000000,78.362617000000000000",17.375151,78.362617
82,1,3,W,0,Semi,Narsingi,True,True,True,4800,BOTH,0,1605,32000,14,BHK3,CORP_BORE,"17.383708210489775000,78.362319647690140000",17.383708210489775,78.36231964769014
83,1,2,N,1,Semi, Uppal ,False,False,True,0,BOTH,3,1200,19000,3,BHK3,CORP_BORE,"17.408714581416770000,78.558329089090720000",17.40871458141677,78.55832908909072
84,1,2,N,1,Semi, Uppal ,False,False,True,0,BOTH,3,1200,19000,3,BHK3,CORP_BORE,"17.408714581416770000,78.558329089090720000",17.40871458141677,78.55832908909072
85,1,2,None,9,Semi,Hafeezpet,True,True,True,3500,BOTH,0,1250,22000,14,BHK2,CORP_BORE,"17.483671838639403000,78.359526149807000000",17.483671838639403,78.359526149807
86,2,3,N,0,Semi,Chanda Nagar,False,False,False,0,BOTH,5,3000,22000,1,BHK3,CORPORATION,"17.489498700000000000,78.330881499999990000",17.4894987,78.33088149999999
87,1,4,W,3,Semi,Banjara Hills,False,False,True,0,BOTH,1,2250,45000,4,BHK3,CORP_BORE,"17.409776496335958000,78.420527331282800000",17.409776496335958,78.4205273312828
88,2,3,W,1,Semi,Hyderabad,True,True,False,2400,BOTH,0,1600,23000,1,BHK3,CORP_BORE,"17.389307323117480000,78.619023914418020000",17.38930732311748,78.61902391441802
89,1,2,N,2,Semi,King Kothi,False,True,True,2000,BOTH,0,1560,28000,6,BHK3,CORP_BORE,"17.393037100000000000,78.483876200000000000",17.3930371,78.4838762
90,0,2,None,1,Semi,Musheerabad,False,True,True,1500,BOTH,0,1150,18000,5,BHK2,CORP_BORE,"17.415551937334630000,78.499001739286780000",17.41555193733463,78.49900173928678
91,1,2,E,1,Semi,Prakasham Panthulu Nagar,True,False,True,0,BOTH,0,1368,25000,5,BHK3,CORP_BORE,"17.522355100000000000,78.420609000000000000",17.5223551,78.420609
92,2,2,E,1,Semi,Malakpet,False,True,False,1500,BOTH,10,1100,13000,3,BHK2,CORP_BORE,"17.373424750000000000,78.508703060000000000",17.37342475,78.50870306
93,1,1,None,2,Semi,"Bapu Nagar, Amberpet",False,False,False,0,TWO_WHEELER,1,700,11000,3,BHK2,None,"17.388774000000000000,78.528714000000000000",17.388774,78.528714
94,1,2,E,1,Unfurnished,Nagole,False,False,False,0,TWO_WHEELER,10,1000,12000,2,BHK2,CORP_BORE,"17.373299274155638000,78.557926679762260000",17.373299274155638,78.55792667976226
95,1,2,None,2,Semi,East Marredpally,False,False,False,0,BOTH,10,900,10000,3,BHK2,CORPORATION,"17.440165800000000000,78.515826500000000000",17.4401658,78.5158265
96,1,3,NE,1,Semi,Serilingampally,False,True,True,2000,BOTH,10,1900,18000,5,BHK3,CORP_BORE,"17.487321200000000000,78.313852599999990000",17.4873212,78.31385259999999
97,4,1,E,2,Unfurnished,Chintalakunta,False,True,False,100,BOTH,0,880,7000,3,BHK1,CORPORATION,"17.337941132036814000,78.554215890213060000",17.337941132036814,78.55421589021306
98,2,3,W,2,Semi,Narsingi,True,True,True,3000,BOTH,1,3300,30000,5,BHK3,CORP_BORE,"17.393522119125443000,78.363719293254090000",17.393522119125443,78.36371929325409
99,2,2,W,1,Semi,"Nallagandla, Serilingampally",True,True,True,2000,BOTH,0,1163,20000,9,BHK2,CORP_BORE,"17.471030100000000000,78.310166700000000000",17.4710301,78.3101667
100,1,2,NE,3,Unfurnished,New Nallakunta,False,False,False,0,TWO_WHEELER,10,1100,12500,3,BHK2,CORP_BORE,"17.400557947563016000,78.511071824934830000",17.400557947563016,78.51107182493483
101,0,2,None,2,Semi,Arihant Ashray,False,True,False,1500,BOTH,10,790,15000,3,BHK2,CORPORATION,"17.447922800000000000,78.461829200000000000",17.4479228,78.4618292
102,1,3,N,5,Semi,Nanakram Guda,True,True,True,5000,BOTH,0,1745,40000,31,BHK3,CORP_BORE,"17.421715200000000000,78.353279800000000000",17.4217152,78.3532798
103,2,3,E,1,Semi,Kondapur,False,True,True,3000,BOTH,1,1433,24000,5,BHK3,CORP_BORE,"17.475568000000000000,78.334943000000000000",17.475568,78.334943
104,1,3,E,1,Semi,Kondapur,False,True,True,2000,BOTH,5,1919,28000,5,BHK3,CORP_BORE,"17.466617900000000000,78.345032699999990000",17.4666179,78.34503269999999
105,1,3,E,1,Semi,Kondapur,False,True,True,2000,BOTH,5,1919,28000,5,BHK3,CORP_BORE,"17.466617900000000000,78.345032699999990000",17.4666179,78.34503269999999
106,2,2,SE,4,Full,Nallagandla,False,True,True,1200,TWO_WHEELER,0,1500,30000,4,BHK2,CORP_BORE,"17.476444051198374000,78.304524661376930000",17.476444051198374,78.30452466137693
107,1,3,E,0,Semi,Patancheru,True,True,True,2000,BOTH,0,1860,20000,2,BHK3,BOREWELL,"17.544671000000000000,78.267253000000000000",17.544671,78.267253
108,2,2,E,2,Unfurnished,Banjara Hills Road No.10,False,True,False,1000,TWO_WHEELER,10,850,17000,4,BHK2,CORP_BORE,"17.416151000000000000,78.434400000000000000",17.416151,78.4344
109,2,3,DK,11,Semi,Gachibowli,True,True,True,4225,BOTH,1,1690,37000,18,BHK3,CORP_BORE,"17.433838300000000000,78.332065200000000000",17.4338383,78.3320652
110,1,2,N,5,Semi,Miyapur,True,True,True,2400,BOTH,10,1712,23000,9,BHK3,CORP_BORE,"17.509695700000000000,78.366911199999990000",17.5096957,78.36691119999999
111,2,2,E,2,Semi,"Bagh Amberpet, Amberpet",False,True,True,2500,NONE,10,1200,15000,5,BHK2,CORP_BORE,"17.402677800000000000,78.514108100000000000",17.4026778,78.5141081
112,2,3,E,4,Full,Hi Tech City,False,True,True,1500,BOTH,10,1650,40000,5,BHK3,CORP_BORE,"17.455130275926667000,78.365667098171370000",17.455130275926667,78.36566709817137
113,1,2,E,2,Semi,Gachibowli,True,False,True,0,BOTH,5,1200,26500,25,BHK2,CORP_BORE,"17.432048145841020000,78.362515735603340000",17.43204814584102,78.36251573560334
114,2,2,E,2,Semi,"Financial District, Nanakram Guda",False,False,True,0,BOTH,3,1600,20000,4,BHK2,BOREWELL,"17.432205668451452000,78.332011811708820000",17.432205668451452,78.33201181170882
115,2,2,E,0,Semi,Alekhya Foot Prints,False,True,True,2300,BOTH,3,1315,23000,5,BHK2,CORP_BORE,"17.434252343877443000,78.315185100000000000",17.434252343877443,78.3151851
116,2,3,W,2,Semi,Amberpet,False,False,True,0,FOUR_WHEELER,0,1500,20000,5,BHK3,CORP_BORE,"17.393609100000000000,78.521140899999980000",17.3936091,78.52114089999998
117,2,2,E,4,Semi,"Raghavendra Colony, Kondapur",False,True,True,2000,BOTH,3,1200,25000,5,BHK2,CORPORATION,"17.469307554041382000,78.361559137701990000",17.469307554041382,78.36155913770199
118,2,2,N,2,Semi,channakeshva nagar,False,False,False,0,BOTH,0,800,11000,2,BHK2,CORP_BORE,"17.523310171697590000,78.415782047850400000",17.52331017169759,78.4157820478504
119,3,2,E,4,Semi,Kondapur,False,False,True,0,BOTH,0,1250,25000,5,BHK2,CORPORATION,"17.471454600000000000,78.354871000000020000",17.4714546,78.35487100000002
120,1,2,E,3,Full,Raidurgam,False,True,True,2000,BOTH,0,1600,28000,4,BHK3,BOREWELL,"17.419328100623144000,78.384041995307310000",17.419328100623144,78.38404199530731
121,0,2,E,0,Semi,Kondapur,False,True,False,500,TWO_WHEELER,5,1100,18500,3,BHK2,CORP_BORE,"17.465587046288803000,78.366236122834120000",17.465587046288803,78.36623612283412
122,0,2,NE,1,Semi,Madhapur,False,True,False,2000,BOTH,10,1065,18000,3,BHK2,None,"17.446557900000000000,78.391257299999990000",17.4465579,78.39125729999999
123,2,2,W,6,Semi,Tellapur,True,False,True,0,BOTH,0,1565,28000,12,BHK3,CORP_BORE,"17.453092342797582000,78.299768404754630000",17.453092342797582,78.29976840475463
124,2,2,E,2,Semi,Madhapur,False,True,False,1500,BOTH,1,1400,27000,4,BHK3,CORP_BORE,"17.448440207649610000,78.390885349284490000",17.44844020764961,78.39088534928449
125,2,2,DK,3,Unfurnished,Toli Chowki,False,True,True,1000,BOTH,1,909,13000,3,BHK2,CORP_BORE,"17.398260215125163000,78.416232993883110000",17.398260215125163,78.41623299388311
126,2,2,DK,3,Unfurnished,Toli Chowki,False,True,True,1000,BOTH,1,909,13000,3,BHK2,CORP_BORE,"17.398260215125163000,78.416232993883110000",17.398260215125163,78.41623299388311
127,2,4,E,0,Semi,Attapur,False,True,False,1000,BOTH,3,2500,25000,3,BHK2,CORP_BORE,"17.368303559915375000,78.417657457672120000",17.368303559915375,78.41765745767212
128,1,2,E,4,Semi,Nanakaramguda,False,True,True,5000,BOTH,3,1200,27000,25,BHK3,CORP_BORE,"17.423438400000000000,78.341286000000000000",17.4234384,78.341286
129,1,2,E,3,Semi,Shilpa Enclave,False,False,True,0,BOTH,0,1170,14500,5,BHK2,CORP_BORE,"17.497832100000000000,78.324886600000000000",17.4978321,78.3248866
130,2,2,E,0,Full,"Kalyan Nagar, Moti Nagar",False,False,False,0,BOTH,10,1000,24500,3,BHK2,CORP_BORE,"17.452924000000000000,78.421864000000000000",17.452924,78.421864
131,1,2,E,2,Unfurnished,Adikmet,False,False,False,0,TWO_WHEELER,5,900,10000,3,BHK2,CORP_BORE,"17.409591818675448000,78.516740999999980000",17.409591818675448,78.51674099999998
132,2,3,W,5,Semi,Kondapur,True,True,True,4000,BOTH,3,2305,32000,8,BHK3,CORP_BORE,"17.470080701347452000,78.369795687732960000",17.470080701347452,78.36979568773296
133,2,2,N,3,Semi,Chanda Nagar,False,True,True,1000,BOTH,0,1400,20000,5,BHK3,BOREWELL,"17.499123500000000000,78.322971200000000000",17.4991235,78.3229712
134,2,2,NE,0,Unfurnished,Ibrahim Bagh,False,False,False,0,BOTH,3,1880,11000,2,BHK2,CORP_BORE,"17.386554005148188000,78.383717654284310000",17.386554005148188,78.38371765428431
135,2,2,E,5,Semi,Pocharam,False,True,True,1000,BOTH,0,1255,9000,5,BHK2,CORP_BORE,"17.313584000000000000,78.579068200000000000",17.313584,78.5790682
136,2,3,W,13,Semi,Nanakramguda,True,True,True,6000,BOTH,1,1920,30000,15,BHK3,CORP_BORE,"17.420813749922612000,78.352836974960330000",17.420813749922612,78.35283697496033
137,2,2,E,3,Semi,Nacharam,False,True,True,1200,BOTH,5,1190,15000,4,BHK2,BOREWELL,"17.422436349827883000,78.546344791591860000",17.422436349827883,78.54634479159186
138,2,3,N,3,Semi,Madhapur,False,True,True,2000,BOTH,5,1400,25000,3,BHK3,CORP_BORE,"17.439746600000000000,78.393687900000000000",17.4397466,78.3936879
139,1,3,N,3,Semi,Kukatpally,False,True,True,3000,BOTH,5,1375,20000,4,BHK3,CORP_BORE,"17.478750900000000000,78.395254799999990000",17.4787509,78.39525479999999
140,0,3,S,1,Semi,Kukatpally,True,True,False,3000,BOTH,5,1400,23000,7,BHK3,None,"17.481881000000000000,78.390638000000000000",17.481881,78.390638
141,2,3,NW,4,Semi,hitech city,True,True,True,2000,BOTH,10,2000,28000,5,BHK3,CORP_BORE,"17.472643225027460000,78.356446497826210000",17.47264322502746,78.35644649782621
142,2,2,E,1,Semi,Kukatpally Metro Station,False,True,True,1500,BOTH,3,1350,14000,6,BHK3,CORP_BORE,"17.502143436915716000,78.425088305429440000",17.502143436915716,78.42508830542944
143,2,2,E,1,Unfurnished,Vanasthalipuram,False,True,False,500,TWO_WHEELER,5,1300,9000,2,BHK2,CORP_BORE,"17.325491100000000000,78.563955800000020000",17.3254911,78.56395580000002
144,2,2,E,4,Semi,Gachibowli,True,True,True,2400,BOTH,3,1615,22000,5,BHK3,CORP_BORE,"17.437648200000000000,78.367329200000000000",17.4376482,78.3673292
145,0,3,E,1,Semi,Jillelguda,False,False,False,0,BOTH,0,1000,9500,1,BHK2,BOREWELL,"17.332639721601517000,78.522770423313550000",17.332639721601517,78.52277042331355
146,1,3,N,4,Unfurnished,Gachibowli,False,False,True,0,BOTH,10,1540,18000,5,BHK3,CORP_BORE,"17.438770033221612000,78.348916800000000000",17.438770033221612,78.3489168
147,1,3,N,4,Unfurnished,Gachibowli,False,False,True,0,BOTH,10,1540,18000,5,BHK3,CORP_BORE,"17.438770033221612000,78.348916800000000000",17.438770033221612,78.3489168
148,1,2,N,5,Semi,Kothaguda,False,True,True,2000,BOTH,1,1170,23000,5,BHK2,CORP_BORE,"17.463495800000000000,78.377781800000000000",17.4634958,78.3777818
149,1,3,W,3,Semi,Manikonda,True,False,True,0,BOTH,3,1755,28000,12,BHK3,CORP_BORE,"17.401210000000000000,78.367443000000000000",17.40121,78.367443
150,2,3,W,3,Semi,Kondapur,False,True,True,3000,FOUR_WHEELER,3,2300,30000,5,BHK3,CORP_BORE,"17.461644000000000000,78.362443200000000000",17.461644,78.3624432
151,2,3,E,3,Semi,Panchashela Bus Stop,False,True,False,1000,FOUR_WHEELER,0,1650,20000,3,BHK3,BOREWELL,"17.514581600000000000,78.487371500000000000",17.5145816,78.4873715
152,1,2,E,2,Semi, Manikonda,False,True,True,1000,BOTH,0,950,12000,5,BHK2,BOREWELL,"17.389126544136158000,78.375662122090130000",17.389126544136158,78.37566212209013
153,1,3,W,2,Semi,Kukatpally,True,True,True,5000,BOTH,0,1735,35000,27,BHK3,CORPORATION,"17.476943800000000000,78.390632300000000000",17.4769438,78.3906323
154,1,2,E,1,Semi,Banjara Hills,False,True,True,2000,BOTH,5,1000,18000,3,BHK2,CORP_BORE,"17.408850400000000000,78.446765900000000000",17.4088504,78.4467659
155,0,3,DK,2,Semi,Madinaguda,False,True,True,2000,BOTH,5,1685,30000,16,BHK3,CORP_BORE,"17.491861600000000000,78.337655800000000000",17.4918616,78.3376558
156,1,2,None,6,Unfurnished,Khairatabad,False,False,True,0,NONE,10,850,18000,6,BHK2,BOREWELL,"17.410585800000000000,78.465231600000000000",17.4105858,78.4652316
157,2,3,E,3,Semi,Manikonda,True,True,True,3500,BOTH,3,1700,35000,5,BHK3,CORP_BORE,"17.413085404361418000,78.370827483593710000",17.413085404361418,78.37082748359371
158,3,3,N,1,Full,upparpally,False,True,True,2000,BOTH,5,1560,25000,5,BHK3,BOREWELL,"17.348954700000000000,78.415958699999990000",17.3489547,78.41595869999999
159,1,2,S,0,Semi,Punjagutta,False,True,True,500,TWO_WHEELER,10,950,16000,2,BHK2,CORPORATION,"17.425448600000000000,78.450544000000000000",17.4254486,78.450544
160,1,3,W,8,Full,Manikonda,True,False,True,0,BOTH,1,1384,30000,13,BHK3,CORP_BORE,"17.416461719431098000,78.369452864418020000",17.416461719431098,78.36945286441802
161,2,2,W,5,Semi,Kondapur,False,True,True,1500,BOTH,0,1425,24500,5,BHK3,CORP_BORE,"17.472233400000000000,78.361672300000000000",17.4722334,78.3616723
162,2,2,S,2,Semi,Somajiguda,False,False,True,0,FOUR_WHEELER,5,1300,25000,5,BHK2,CORP_BORE,"17.427681677578207000,78.453952785388950000",17.427681677578207,78.45395278538895
163,1,3,W,9,Semi,Puppalguda,True,False,True,0,BOTH,0,1835,35000,31,BHK3,CORPORATION,"17.398790601277767000,78.355477387731550000",17.398790601277767,78.35547738773155
164,2,2,W,4,Semi,Kondapur,False,True,True,1800,BOTH,1,1400,22000,4,BHK3,CORP_BORE,"17.462203700000000000,78.351300500000000000",17.4622037,78.3513005
165,1,2,N,1,Semi,Kondapur,False,True,True,2000,BOTH,5,1560,20000,4,BHK3,CORP_BORE,"17.465717900000000000,78.346434199999990000",17.4657179,78.34643419999999
166,2,5,E,7,Semi,Kondapur,True,True,True,8000,BOTH,3,3910,70000,8,BHK4,CORP_BORE,"17.465867500000000000,78.373038200000000000",17.4658675,78.3730382
167,1,1,E,2,Full,Kukatpally,False,False,False,0,BOTH,3,350,14000,3,RK1,CORP_BORE,"17.494506400000000000,78.382161200000000000",17.4945064,78.3821612
168,1,1,E,2,Full,Kukatpally,False,False,False,0,BOTH,3,350,14000,3,RK1,CORP_BORE,"17.494506400000000000,78.382161200000000000",17.4945064,78.3821612
169,2,2,W,5,Semi,Kukatpally,False,True,True,1000,BOTH,5,1100,15000,6,BHK2,CORP_BORE,"17.503091400000000000,78.389999699999990000",17.5030914,78.38999969999999
170,2,2,N,4,Unfurnished,A. S. Rao Nagar,False,True,True,1000,TWO_WHEELER,3,1220,8000,4,BHK2,CORPORATION,"17.467844484805173000,78.547249565345700000",17.467844484805173,78.5472495653457
171,2,2,W,2,Semi,Kothaguda,False,True,True,2000,BOTH,10,1300,22000,5,BHK2,CORP_BORE,"17.457405344555724000,78.369012493048130000",17.457405344555724,78.36901249304813
172,1,2,W,1,Semi,Nallagandla,True,True,True,2960,BOTH,3,1230,19000,12,BHK2,CORP_BORE,"17.474313100000000000,78.308481100000000000",17.4743131,78.3084811
173,3,3,E,7,Semi,Gachibowli,True,True,True,3000,BOTH,0,1850,32000,14,BHK3,CORP_BORE,"17.414244700000000000,78.344478700000000000",17.4142447,78.3444787
174,2,2,N,4,Semi,Miyapur,True,True,True,3500,BOTH,0,1249,23000,15,BHK2,CORP_BORE,"17.503651200000000000,78.362176699999990000",17.5036512,78.36217669999999
175,1,2,W,4,Semi,Gachibowli,True,True,True,3000,BOTH,0,1245,28000,31,BHK2,CORP_BORE,"17.421715200000000000,78.353279800000000000",17.4217152,78.3532798
176,1,2,E,5,Semi,Balkampet,False,True,True,1500,BOTH,10,1100,15000,5,BHK2,CORPORATION,"17.447392509125308000,78.449131784923720000",17.447392509125308,78.44913178492372
177,2,2,E,4,Semi,Kondapur,False,True,True,1650,BOTH,0,1348,24000,5,BHK3,CORP_BORE,"17.471543942814830000,78.355015477895120000",17.47154394281483,78.35501547789512
178,1,3,E,2,Semi,Kachiguda Railway Station,False,False,True,0,BOTH,3,1512,26500,4,BHK3,CORP_BORE,"17.389330300000000000,78.499225099999990000",17.3893303,78.49922509999999
179,3,3,E,5,Semi,Madhapur,True,True,True,10200,BOTH,5,2653,54000,5,BHK3,CORP_BORE,"17.445130900000000000,78.390088499999990000",17.4451309,78.39008849999999
180,2,2,W,2,Semi,Nizampet,False,True,True,2000,BOTH,10,1490,16000,6,BHK3,CORP_BORE,"17.513558600000000000,78.385869200000000000",17.5135586,78.3858692
181,3,3,W,1,Semi,Sanath Nagar,False,True,False,4000,BOTH,5,1818,29000,5,BHK3,None,"17.456020000000000000,78.448551000000000000",17.45602,78.448551
182,2,3,NE,3,Semi,Hanuman Mansion,False,True,True,2500,FOUR_WHEELER,10,1500,25000,5,BHK3,CORP_BORE,"17.429536000000000000,78.443777000000010000",17.429536,78.44377700000001
183,1,2,E,1,Semi,East Maredpally,False,True,True,2000,BOTH,10,1000,18000,5,BHK2,CORP_BORE,"17.443660000000000000,78.509044300000010000",17.44366,78.50904430000001
184,0,3,E,0,Semi,Mehdipatnam,False,False,False,0,BOTH,10,1500,24000,1,BHK3,CORP_BORE,"17.383925000000000000,78.438850000000000000",17.383925,78.43885
185,2,3,E,4,Semi,Chanda Nagar,True,True,True,3100,BOTH,0,1640,22000,5,BHK3,CORP_BORE,"17.499705400000000000,78.321789000000000000",17.4997054,78.321789
186,4,3,NE,2,Semi,Panjagutta ,False,True,True,1500,BOTH,10,2000,36000,5,BHK3,CORP_BORE,"17.423849494311350000,78.452486023238070000",17.42384949431135,78.45248602323807
187,1,1,NE,2,Semi,Tirumalgherry,False,True,False,500,TWO_WHEELER,10,800,9000,2,BHK1,CORP_BORE,"17.473346201424080000,78.499884002481500000",17.47334620142408,78.4998840024815
188,3,2,W,3,Semi,Kukatpally,False,True,True,1500,BOTH,10,1375,16500,5,BHK3,CORP_BORE,"17.496366800000000000,78.411611700000000000",17.4963668,78.4116117
189,3,2,W,3,Semi,Kukatpally,False,True,True,1500,BOTH,10,1375,16500,5,BHK3,CORP_BORE,"17.496366800000000000,78.411611700000000000",17.4963668,78.4116117
190,1,2,E,0,Semi,Kondapur,False,True,True,2200,BOTH,5,1560,30000,5,BHK3,CORP_BORE,"17.464385900000000000,78.349322200000000000",17.4643859,78.3493222
191,1,3,E,8,Semi,Gachibowli,True,True,True,4500,BOTH,10,1756,33000,12,BHK3,CORPORATION,"17.441470000000000000,78.344023000000000000",17.44147,78.344023
192,2,2,W,0,Unfurnished, Hashmetpet,False,False,False,0,BOTH,10,1400,15000,0,BHK3,CORPORATION,"17.471179400000000000,78.485549400000000000",17.4711794,78.4855494
193,3,3,W,7,Semi,Hafeezpet,True,True,True,3800,BOTH,0,2800,36000,14,BHK3,CORP_BORE,"17.484168300000000000,78.360294200000000000",17.4841683,78.3602942
194,2,2,E,5,Full,Banjara Hills,False,True,True,2000,BOTH,0,950,35000,6,BHK3,CORP_BORE,"17.417556635937597000,78.438673429447760000",17.417556635937597,78.43867342944776
195,1,3,N,0,Semi,Kismatpur,False,True,False,1000,BOTH,0,1900,20000,1,BHK4,BOREWELL,"17.341107326500940000,78.378704160713210000",17.34110732650094,78.37870416071321
196,3,3,W,3,Semi,Jubilee Hills,False,True,True,2000,BOTH,3,1450,25000,4,BHK3,BOREWELL,"17.444218741640210000,78.398986300000000000",17.44421874164021,78.3989863
197,1,2,E,1,Semi,Pragathi Nagar,False,True,True,1250,BOTH,3,1400,18000,5,BHK3,BOREWELL,"17.497722000000000000,78.394448500000000000",17.497722,78.3944485
198,1,1,SW,4,Semi,Toli Chowki,False,True,True,250,TWO_WHEELER,3,600,10500,4,BHK1,CORPORATION,"17.399002300000000000,78.415693300000000000",17.3990023,78.4156933
199,2,2,E,1,Semi,Kismatpur,False,False,False,0,BOTH,0,1050,8500,1,BHK2,CORP_BORE,"17.340022676816503000,78.380525372922420000",17.340022676816503,78.38052537292242
200,2,2,W,1,Semi,Madinaguda,False,True,True,1500,BOTH,5,1350,15000,4,BHK3,CORP_BORE,"17.494429050663932000,78.345440685319520000",17.494429050663932,78.34544068531952
201,3,3,W,0,Full,Manikonda,False,True,True,2500,BOTH,5,1879,23000,3,BHK3,CORP_BORE,"17.405718388314140000,78.376011112720520000",17.40571838831414,78.37601111272052
202,2,2,W,3,Semi,Manikonda,False,False,True,0,BOTH,3,1340,17500,4,BHK3,CORP_BORE,"17.398920251320042000,78.374994173539990000",17.398920251320042,78.37499417353999
203,2,3,N,2,Semi,Kondapur,False,True,True,2000,BOTH,1,1800,23000,3,BHK3,BOREWELL,"17.469857700000000000,78.357824600000000000",17.4698577,78.3578246
204,2,3,W,2,Semi,Kukatpally,True,True,False,5000,BOTH,3,1725,32000,16,BHK3,CORP_BORE,"17.482910000000000000,78.400161000000000000",17.48291,78.400161
205,2,2,N,5,Unfurnished,Serlingampally,False,True,True,1000,BOTH,5,780,9000,6,BHK2,CORP_BORE,"17.490600016401064000,78.319346200000000000",17.490600016401064,78.3193462
206,4,2,E,0,Semi,Venkatasai Enclave,False,False,False,0,BOTH,5,1200,10500,0,BHK2,CORPORATION,"17.329751658186300000,78.521614564418020000",17.3297516581863,78.52161456441802
207,2,5,W,5,Semi,Nanakaramguda,True,True,True,7000,BOTH,5,2140,50000,10,BHK3,CORPORATION,"17.421999412538120000,78.346969046836520000",17.42199941253812,78.34696904683652
208,1,4,E,0,Full,"Balram Nagar, Neredmet",False,False,False,0,BOTH,10,3500,45000,1,BHK4,CORP_BORE,"17.464023300000000000,78.535915600000000000",17.4640233,78.5359156
209,2,2,NE,1,Semi,Kukatpally,False,True,True,1200,BOTH,10,1200,19000,4,BHK3,CORP_BORE,"17.482910000000000000,78.400161000000000000",17.48291,78.400161
210,2,2,NE,1,Semi,Kukatpally,False,True,True,1200,BOTH,10,1200,19000,4,BHK3,CORP_BORE,"17.482910000000000000,78.400161000000000000",17.48291,78.400161
211,3,3,W,1,Semi,Banjara Hills,False,False,False,0,BOTH,7,2100,35000,2,BHK3,CORP_BORE,"17.416889000000000000,78.438670000000000000",17.416889,78.43867
212,1,3,E,5,Semi,Puppalguda,True,False,True,0,BOTH,0,1834,38500,30,BHK3,CORPORATION,"17.398211600000000000,78.374851300000000000",17.3982116,78.3748513
213,2,3,E,1,Semi,Bowenpally,False,False,False,0,BOTH,5,1700,25000,2,BHK3,CORP_BORE,"17.467782300000000000,78.485597900000000000",17.4677823,78.4855979
214,0,2,None,2,Semi,Ramkoti,False,True,False,500,TWO_WHEELER,0,1100,12000,2,BHK2,CORPORATION,"17.393338476523137000,78.486735737434360000",17.393338476523137,78.48673573743436
215,2,3,W,2,Semi,Gachibowli,True,True,True,2500,BOTH,0,2200,36000,5,BHK3,CORP_BORE,"17.452500600000000000,78.365585099999990000",17.4525006,78.36558509999999
216,1,1,E,1,Semi,Saroornagar,False,False,False,0,TWO_WHEELER,10,550,5500,1,RK1,CORP_BORE,"17.358608319342746000,78.535662628836060000",17.358608319342746,78.53566262883606
217,2,2,E,0,Unfurnished,Nacharam,False,True,False,350,BOTH,0,900,11500,1,BHK2,CORP_BORE,"17.430808700000000000,78.559547999999990000",17.4308087,78.55954799999999
218,1,2,NE,4,Semi,Kukatpally,False,False,True,0,BOTH,5,1350,22000,4,BHK3,CORP_BORE,"17.486886100000000000,78.388733199999990000",17.4868861,78.38873319999999
219,1,2,N,1,Semi,Kukatpally Metro Station,False,True,False,500,TWO_WHEELER,10,1100,14500,2,BHK2,CORPORATION,"17.485115500000000000,78.411557700000000000",17.4851155,78.4115577
220,1,3,E,4,Semi,Masjid Banda,False,False,True,0,BOTH,1,1820,22000,5,BHK3,BOREWELL,"17.465717900000000000,78.346434199999990000",17.4657179,78.34643419999999
221,0,2,NE,0,Semi,Dilsuknagar,False,False,False,0,TWO_WHEELER,10,1100,13000,2,BHK2,CORPORATION,"17.363816360088130000,78.528478993254080000",17.36381636008813,78.52847899325408
222,0,2,S,0,Semi,Jubilee Hills,False,False,False,0,FOUR_WHEELER,1,1500,26000,0,BHK2,CORPORATION,"17.408836246799694000,78.417827066859690000",17.408836246799694,78.41782706685969
223,1,2,E,10,Full,Nanakaramguda,True,True,True,5000,BOTH,5,1198,34500,24,BHK3,CORP_BORE,"17.423441796248294000,78.341291944094050000",17.423441796248294,78.34129194409405
224,2,3,N,3,Semi,Banjara Hills,False,True,True,5000,BOTH,5,2500,42000,3,BHK3,CORPORATION,"17.422339600000000000,78.442218900000000000",17.4223396,78.4422189
225,2,3,E,10,Full,Manikonda,False,True,True,2000,BOTH,3,1700,27000,12,BHK3,CORP_BORE,"17.414221200000000000,78.379713999999990000",17.4142212,78.37971399999999
226,1,2,N,2,Semi,Avanti Nagar,False,True,True,3000,FOUR_WHEELER,0,1334,22000,3,BHK2,CORP_BORE,"17.401018100000000000,78.479101599999990000",17.4010181,78.47910159999999
227,3,4,NE,0,Semi,Patancheruvu,False,True,False,1500,BOTH,1,3550,22000,1,BHK3,BOREWELL,"17.528466000000000000,78.300090999999980000",17.528466,78.30009099999998
228,2,3,W,0,Full,Bolarum,False,False,False,0,BOTH,5,2000,16500,1,BHK3,CORP_BORE,"17.518999000000000000,78.515856200000000000",17.518999,78.5158562
229,3,2,NW,1,Semi,West Marredpally,False,False,False,0,BOTH,10,1200,14000,1,BHK2,CORP_BORE,"17.454949100000000000,78.508731300000000000",17.4549491,78.5087313
230,2,3,W,3,Semi,Kondapur,False,True,True,2500,BOTH,10,1650,24000,4,BHK3,CORP_BORE,"17.453864701791115000,78.365665751068790000",17.453864701791115,78.36566575106879
231,2,3,W,3,Semi,Kondapur,False,True,True,2500,BOTH,10,1650,24000,4,BHK3,CORP_BORE,"17.453864701791115000,78.365665751068790000",17.453864701791115,78.36566575106879
232,0,2,NE,0,Unfurnished,"Attapur, ",False,True,False,500,BOTH,0,1200,12500,1,BHK2,CORP_BORE,"17.366132349342863000,78.428771206439550000",17.366132349342863,78.42877120643955
233,2,2,N,4,Semi,"Street Number 6, Manikonda",False,True,True,1000,TWO_WHEELER,5,1160,14000,5,BHK2,CORPORATION,"17.400559300000000000,78.377823200000000000",17.4005593,78.3778232
234,2,3,W,10,Semi,"Khajaguda, Manikonda",False,True,True,2000,BOTH,3,1657,23000,12,BHK3,CORP_BORE,"17.416559336010966000,78.376490888343240000",17.416559336010966,78.37649088834324
235,2,3,E,23,Full,Gachibowli,True,True,True,8000,BOTH,1,1989,60000,30,BHK3,CORP_BORE,"17.424275900000000000,78.347191900000000000",17.4242759,78.3471919
236,2,3,N,9,Semi,Kokapet,True,True,True,4460,BOTH,1,1784,30000,9,BHK3,CORP_BORE,"17.396503000000000000,78.339083000000000000",17.396503,78.339083
237,2,3,W,2,Full,Manikonda,True,True,True,2000,BOTH,5,1600,26000,11,BHK3,CORP_BORE,"17.415252900000000000,78.376137599999990000",17.4152529,78.37613759999999
238,1,2,N,1,Semi,Nizampet,False,True,True,800,BOTH,1,1001,11000,5,BHK2,CORP_BORE,"17.519667500000000000,78.377854200000000000",17.5196675,78.3778542
239,1,2,None,15,Semi,Gachibowli,True,True,True,5000,BOTH,3,1198,28000,23,BHK3,CORP_BORE,"17.423438400000000000,78.341286000000000000",17.4234384,78.341286
240,2,3,W,18,Semi,Kukatpally,True,True,True,6000,BOTH,0,1842,39000,27,BHK3,CORP_BORE,"17.476943800000000000,78.390632300000000000",17.4769438,78.3906323
241,1,3,N,4,Full,Kondapur,True,True,True,3300,BOTH,3,1510,31000,7,BHK2,CORP_BORE,"17.460800900000000000,78.344141200000000000",17.4608009,78.3441412
242,0,2,E,0,Semi,Vanasthalipuram,False,True,False,300,BOTH,5,1500,10000,2,BHK2,CORP_BORE,"17.318297804875215000,78.567008736963070000",17.318297804875215,78.56700873696307
243,0,2,NE,2,Semi,Vivekananda Nagar,False,False,False,0,TWO_WHEELER,5,900,15000,2,BHK2,CORP_BORE,"17.494977732555853000,78.411238400000000000",17.494977732555853,78.4112384
244,2,4,N,1,Full,Madhapur,False,True,True,2200,BOTH,10,1335,38000,3,BHK4,CORPORATION,"17.440703831452403000,78.391624389549220000",17.440703831452403,78.39162438954922
245,2,2,E,2,Unfurnished,Chilkalguda,False,False,False,0,TWO_WHEELER,1,700,12500,2,BHK2,CORP_BORE,"17.429511602076490000,78.513336459704130000",17.42951160207649,78.51333645970413
246,2,2,E,1,Unfurnished,Nallakunta,False,True,False,500,TWO_WHEELER,1,800,14000,3,BHK2,CORPORATION,"17.398813700000000000,78.503827500000000000",17.3988137,78.5038275
247,0,3,W,1,Unfurnished,Badangpet,False,False,False,0,BOTH,0,1200,7000,1,BHK2,CORP_BORE,"17.307123500000000000,78.516744400000000000",17.3071235,78.5167444
248,1,2,NE,3,Unfurnished,Malleshwari Nilayam,False,True,True,1000,FOUR_WHEELER,1,1000,16000,3,BHK2,CORP_BORE,"17.420399400000000000,78.501857399999990000",17.4203994,78.50185739999999
249,2,2,W,4,Semi,Kondapur,False,True,True,1500,BOTH,10,1250,25000,5,BHK2,BOREWELL,"17.469857700000000000,78.357824600000000000",17.4698577,78.3578246
250,1,2,N,2,Unfurnished,HITEC City,False,True,True,1500,FOUR_WHEELER,3,1100,22000,2,BHK2,CORP_BORE,"17.445701300000000000,78.380445299999990000",17.4457013,78.38044529999999
251,1,2,NE,2,Semi,Bala Nagar,False,False,False,0,BOTH,3,1025,13000,2,BHK2,CORP_BORE,"17.463836464430470000,78.456101953372940000",17.46383646443047,78.45610195337294
252,1,2,NE,2,Semi,Bala Nagar,False,False,False,0,BOTH,3,1025,13000,2,BHK2,CORP_BORE,"17.463836464430470000,78.456101953372940000",17.46383646443047,78.45610195337294
253,1,2,E,3,Semi,Nanakaramguda,False,True,True,4950,BOTH,1,1198,32000,24,BHK3,CORP_BORE,"17.423438400000000000,78.341286000000000000",17.4234384,78.341286
254,2,3,W,4,Semi,Kapra,False,True,True,1500,BOTH,5,2234,16500,7,BHK3,CORP_BORE,"17.487079000000000000,78.569279000000000000",17.487079,78.569279
255,1,3,E,1,Semi,Gachibowli,False,True,True,5000,FOUR_WHEELER,10,1900,27000,12,BHK3,CORP_BORE,"17.441230100000000000,78.345464200000000000",17.4412301,78.3454642
256,2,3,E,5,Semi,Gopanapalli,True,True,True,2000,BOTH,0,1560,25000,5,BHK3,CORP_BORE,"17.454314999999990000,78.305498200000000000",17.45431499999999,78.3054982
257,1,3,N,1,Semi,Kukatpally,False,True,True,1000,BOTH,0,2000,25000,3,BHK3,BOREWELL,"17.498274197615647000,78.388631058890380000",17.498274197615647,78.38863105889038
258,1,2,NE,4,Semi,Madhapur,False,True,True,1500,BOTH,1,1100,22000,5,BHK2,BOREWELL,"17.455598000000000000,78.389620000000000000",17.455598,78.38962
259,1,2,E,18,Full,Nanakaramguda,True,True,True,4500,BOTH,1,1198,40000,24,BHK3,CORP_BORE,"17.423441796248294000,78.341291944094050000",17.423441796248294,78.34129194409405
260,0,1,E,4,Unfurnished,Madeenaguda,False,False,False,0,TWO_WHEELER,0,600,10500,4,BHK1,BOREWELL,"17.494455183707580000,78.336493198147560000",17.49445518370758,78.33649319814756
261,2,3,W,1,Semi,Kondapur,False,True,True,1500,BOTH,3,1515,25500,5,BHK3,CORP_BORE,"17.463945753283635000,78.342571591246700000",17.463945753283635,78.3425715912467
262,1,2,E,4,Semi,Kukatpally,False,True,True,1800,BOTH,5,1400,20000,5,BHK3,CORP_BORE,"17.485973200000000000,78.387524399999990000",17.4859732,78.38752439999999
263,1,3,W,10,Semi,Kondapur,True,True,True,5000,BOTH,0,1710,43000,20,BHK3,CORP_BORE,"17.464028700000000000,78.337476299999990000",17.4640287,78.33747629999999
264,3,3,E,2,Semi,Adarsh Nagar,False,True,True,2000,BOTH,5,2250,38000,4,BHK3,CORP_BORE,"17.404670400000000000,78.473063200000000000",17.4046704,78.4730632
265,1,2,S,3,Semi,Padma Rao Nagar,False,True,True,1200,NONE,10,1100,12000,4,BHK2,CORP_BORE,"17.429860000000000000,78.504893000000000000",17.42986,78.504893
266,2,2,DK,1,Full,Toli Chowki,False,False,True,0,BOTH,0,1000,24000,5,BHK2,CORP_BORE,"17.398838492824034000,78.415349977246110000",17.398838492824034,78.41534997724611
267,2,3,W,1,Semi,Gachibowli,True,True,True,4000,BOTH,3,1515,29000,4,BHK3,CORP_BORE,"17.439238563810210000,78.376215879639530000",17.43923856381021,78.37621587963953
268,2,3,W,2,Semi,Upparpally,True,True,True,2500,BOTH,0,1635,26500,9,BHK3,CORP_BORE,"17.366940119868870000,78.415168428836040000",17.36694011986887,78.41516842883604
269,0,2,E,0,Semi,Kukatpally,False,True,False,1000,TWO_WHEELER,10,2400,17000,2,BHK2,CORP_BORE,"17.490992688011975000,78.399789261232070000",17.490992688011975,78.39978926123207
270,1,2,E,1,Semi,New Nallakunta,False,True,True,2000,BOTH,10,850,16000,5,BHK2,CORP_BORE,"17.405881900000000000,78.497565564418040000",17.4058819,78.49756556441804
271,1,2,W,3,Semi,Bandlaguda Jagir,False,True,True,1500,BOTH,0,1200,16000,5,BHK2,BOREWELL,"17.363136210365713000,78.394310206745910000",17.363136210365713,78.39431020674591
272,1,2,E,5,Full,Kavadiguda,False,True,True,1000,BOTH,5,1350,17000,5,BHK2,CORPORATION,"17.416670000000000000,78.488249000000000000",17.41667,78.488249
273,1,2,E,5,Full,Kavadiguda,False,True,True,1000,BOTH,5,1350,17000,5,BHK2,CORPORATION,"17.416670000000000000,78.488249000000000000",17.41667,78.488249
274,1,2,W,31,Semi,Kukatpally,True,True,True,3500,FOUR_WHEELER,1,1440,34000,34,BHK3,CORP_BORE,"17.475082000000000000,78.391995000000000000",17.475082,78.391995
275,2,2,E,1,Semi,Kukatpally,False,True,True,1200,BOTH,10,1400,17500,5,BHK2,CORP_BORE,"17.485546600000000000,78.390632900000000000",17.4855466,78.3906329
276,2,2,E,9,Full,Attapur,True,True,True,2000,BOTH,1,1162,25000,9,BHK2,CORP_BORE,"17.354869000000000000,78.422981000000000000",17.354869,78.422981
277,2,4,E,1,Semi,Patancheru,False,False,False,0,BOTH,5,1800,17000,2,BHK3,CORP_BORE,"17.532483199999990000,78.265347200000000000",17.53248319999999,78.2653472
278,0,2,None,2,Full,Kondapur,False,True,False,1000,BOTH,3,900,20000,4,BHK2,None,"17.460693000000000000,78.353577000000000000",17.460693,78.353577
279,1,2,N,17,Semi,Nanakramguda,True,True,True,3892,BOTH,5,965,21000,24,BHK2,CORP_BORE,"17.425584000000000000,78.340531000000000000",17.425584,78.340531
280,1,3,DK,2,Semi,Serilingampally,False,True,True,1200,BOTH,5,1750,20000,4,BHK3,BOREWELL,"17.488727800000000000,78.314028900000000000",17.4887278,78.3140289
281,3,2,N,2,Full,Nanakramguda,True,True,True,6700,BOTH,1,1728,53000,30,BHK3,CORP_BORE,"17.423791300000000000,78.346627700000000000",17.4237913,78.3466277
282,1,3,E,2,Full,Banjara Hills,False,False,True,0,BOTH,5,2250,46000,5,BHK3,CORP_BORE,"17.418704000000000000,78.433678700000000000",17.418704,78.4336787
283,1,3,W,7,Semi,Kondapur,True,True,True,5900,BOTH,1,1738,58000,17,BHK3,CORP_BORE,"17.459134000000000000,78.369028000000000000",17.459134,78.369028
284,1,3,W,1,Full,Ghatkesar Mandal,True,True,True,1360,BOTH,0,1360,15000,7,BHK3,CORP_BORE,"17.424674200000000000,78.666778999999990000",17.4246742,78.66677899999999
285,2,3,E,3,Semi,Kondapur,True,True,True,4000,FOUR_WHEELER,3,1785,28000,7,BHK3,CORP_BORE,"17.462763700000000000,78.345026800000000000",17.4627637,78.3450268
286,1,2,E,2,Semi,Hyder Nagar,False,True,True,1100,BOTH,5,1400,16000,4,BHK2,CORPORATION,"17.501102600000007000,78.385163499999960000",17.501102600000007,78.38516349999996
287,3,3,N,8,Semi,Kokapet,True,False,True,0,FOUR_WHEELER,3,1900,28000,9,BHK3,CORPORATION,"17.396814300000000000,78.338513200000000000",17.3968143,78.3385132
288,1,3,W,1,Semi,"Sri Jagathswapna Realturs pvt Ltd, VILLAS & DUPLEX VILLAS,",True,True,False,2000,BOTH,0,1306,18000,2,BHK3,CORP_BORE,"17.389315782707970000,78.619017340242880000",17.38931578270797,78.61901734024288
289,1,3,E,2,Semi,Whitefields,False,True,True,4100,BOTH,5,2120,45000,15,BHK3,CORP_BORE,"17.455309100000000000,78.364441800000000000",17.4553091,78.3644418
290,0,2,None,3,Full, Puppalaguda,False,True,True,1200,BOTH,3,1008,16000,3,BHK2,None,"17.399860500000000000,78.383416799999990000",17.3998605,78.38341679999999
291,2,3,E,0,Semi,Adikmet,False,True,True,3560,BOTH,0,1780,30000,5,BHK3,BOREWELL,"17.404839200000000000,78.508434900000000000",17.4048392,78.5084349
292,3,3,W,5,Semi,Kavadiguda,False,True,False,1400,BOTH,5,1500,20000,6,BHK3,CORP_BORE,"17.413684600000000000,78.492282900000000000",17.4136846,78.4922829
293,1,2,E,8,Semi,Kapra,False,True,True,3000,BOTH,5,1487,13000,14,BHK2,CORP_BORE,"17.488890500000000000,78.570457300000040000",17.4888905,78.57045730000004
294,1,2,E,8,Semi,Kapra,False,True,True,3000,BOTH,5,1487,13000,14,BHK2,CORP_BORE,"17.488890500000000000,78.570457300000040000",17.4888905,78.57045730000004
295,1,3,E,1,Semi,Kondapur,True,True,True,5000,BOTH,3,2500,42000,7,BHK3,CORP_BORE,"17.467642609159448000,78.370729805360920000",17.467642609159448,78.37072980536092
296,1,2,E,1,Semi,Kukatpally,False,True,True,2200,BOTH,5,1340,20000,5,BHK2,CORP_BORE,"17.483667000000000000,78.393521000000000000",17.483667,78.393521
297,1,3,W,7,Semi,Gachibowli,False,True,True,6000,FOUR_WHEELER,5,2350,38000,7,BHK3,CORP_BORE,"17.443713881088055000,78.357433403041070000",17.443713881088055,78.35743340304107
298,2,3,W,4,Semi,Gachibowli,True,False,True,0,FOUR_WHEELER,0,1834,38000,20,BHK3,CORP_BORE,"17.398797000000000000,78.355468000000000000",17.398797,78.355468
299,4,2,E,1,Semi,Lingampally,False,True,True,2000,BOTH,10,1200,18100,5,BHK2,CORP_BORE,"17.393850425139547000,78.493806022664640000",17.393850425139547,78.49380602266464
300,2,2,N,1,Unfurnished,Madhapur,False,True,True,1200,BOTH,0,1250,19000,5,BHK2,CORP_BORE,"17.452810720634200000,78.390280810416030000",17.4528107206342,78.39028081041603
301,3,2,E,1,Semi,Kondapur,False,False,True,0,BOTH,0,1000,17000,4,BHK2,CORP_BORE,"17.465138097300810000,78.341826120237730000",17.46513809730081,78.34182612023773
302,1,1,E,1,Semi,Madhapur,False,True,False,1000,BOTH,5,700,15000,3,BHK2,CORP_BORE,"17.437881976730967000,78.395249126142350000",17.437881976730967,78.39524912614235
303,1,1,N,1,Semi,Siddiq Nagar,False,False,True,0,TWO_WHEELER,0,500,12000,5,BHK1,CORP_BORE,"17.449629841223754000,78.370752433135220000",17.449629841223754,78.37075243313522
304,1,3,NE,1,Semi,Kukatpally,False,False,False,0,BOTH,1,1350,18000,3,BHK3,CORP_BORE,"17.480879900000000000,78.376161400000000000",17.4808799,78.3761614
305,1,3,E,2,Semi,"Alkapoor Township, Alkapoor, Puppalguda",False,False,False,0,BOTH,1,1700,18000,3,BHK2,CORP_BORE,"17.379492300000000000,78.371812900000000000",17.3794923,78.3718129
306,2,2,W,5,Semi,Kukatpally,False,True,True,1200,FOUR_WHEELER,10,1200,18000,5,BHK2,CORP_BORE,"17.490018333333335000,78.395991666666670000",17.490018333333335,78.39599166666667
307,2,3,N,4,Semi,Gachibowli,True,False,True,0,BOTH,0,1745,37000,32,BHK3,CORP_BORE,"17.421715200000000000,78.353279800000000000",17.4217152,78.3532798
308,4,3,E,5,Full,Kukatpally,True,True,True,4500,BOTH,3,2100,35000,25,BHK3,CORP_BORE,"17.489684000000000000,78.393741000000000000",17.489684,78.393741
309,2,3,SW,3,Semi,Kukatpally,True,True,True,5000,BOTH,10,1985,27000,11,BHK3,CORP_BORE,"17.477093600000000000,78.392043700000000000",17.4770936,78.3920437
310,1,2,N,0,Unfurnished,Kukatpally,False,True,False,1200,BOTH,3,1200,14500,3,BHK2,CORP_BORE,"17.482132600000000000,78.416262500000000000",17.4821326,78.4162625
311,2,3,W,1,Full,Jubilee Hills,False,True,True,1600,BOTH,5,1400,33000,4,BHK3,CORP_BORE,"17.415783700000000000,78.410658300000000000",17.4157837,78.4106583
312,1,2,E,2,Semi,Pragathi Nagar,False,True,True,1500,FOUR_WHEELER,5,1220,10000,4,BHK2,CORP_BORE,"17.514144855803952000,78.389192395106520000",17.514144855803952,78.38919239510652
313,1,3,W,0,Semi,Manikonda,True,True,False,5000,BOTH,1,2100,29000,0,BHK3,BOREWELL,"17.391536500000000000,78.379145900000000000",17.3915365,78.3791459
314,2,3,E,4,Semi,Kondapur,False,True,True,1800,BOTH,5,1770,25000,4,BHK3,CORP_BORE,"17.465727525640230000,78.350409162600330000",17.46572752564023,78.35040916260033
315,2,3,E,4,Semi,Kondapur,False,True,True,1800,BOTH,5,1770,25000,4,BHK3,CORP_BORE,"17.465727525640230000,78.350409162600330000",17.46572752564023,78.35040916260033
316,2,3,E,13,Semi,Kondapur,False,True,True,9000,BOTH,0,2360,35000,20,BHK3,CORP_BORE,"17.468956500000000000,78.334636300000000000",17.4689565,78.3346363
317,3,3,E,3,Semi,Hafeezpet,False,True,True,1500,BOTH,1,1500,25000,6,BHK3,CORP_BORE,"17.484051900000000000,78.347197200000000000",17.4840519,78.3471972
318,2,2,E,4,Unfurnished,Kukatpally,False,True,True,1500,BOTH,3,1200,12500,4,BHK2,CORP_BORE,"17.499498800000000000,78.409750000000000000",17.4994988,78.40975
319,1,2,DK,6,Semi,Nanakaramguda,True,True,True,2500,BOTH,5,965,22000,22,BHK2,CORP_BORE,"17.423438400000000000,78.341286000000000000",17.4234384,78.341286
320,1,2,N,2,Semi,Ramgopalpet,False,True,True,1500,TWO_WHEELER,1,1100,21000,3,BHK2,CORP_BORE,"17.441677500000000000,78.487345699999990000",17.4416775,78.48734569999999
321,1,3,NE,2,Unfurnished,Whisper Valley,False,True,True,1400,BOTH,5,1650,24000,5,BHK3,BOREWELL,"17.532770300000000000,78.364204500000000000",17.5327703,78.3642045
322,2,3,E,1,Semi,Madinaguda,False,True,True,2000,BOTH,5,1625,22000,5,BHK3,BOREWELL,"17.490003036569300000,78.341986686508180000",17.4900030365693,78.34198668650818
323,1,3,N,1,Semi,Madhapur,False,True,False,1000,BOTH,5,2000,32000,4,BHK3,CORPORATION,"17.448111500000000000,78.390488499999990000",17.4481115,78.39048849999999
324,2,2,N,1,Semi,Gachibowli,False,True,True,1000,TWO_WHEELER,0,1150,15000,4,BHK2,BOREWELL,"17.437858700000000000,78.331919000000000000",17.4378587,78.331919
325,2,3,SE,4,Semi,Kukatpally,False,False,True,0,BOTH,0,2000,30000,4,BHK3,CORP_BORE,"17.467567149996224000,78.395052188360580000",17.467567149996224,78.39505218836058
326,1,3,W,1,Semi,"MLA Colony, Film Nagar",True,True,False,500,TWO_WHEELER,3,1100,20000,1,BHK3,CORP_BORE,"17.416814600000000000,78.413015399999990000",17.4168146,78.41301539999999
327,3,3,W,2,Unfurnished,Kothapet,False,True,True,1200,BOTH,10,1460,12000,4,BHK3,CORP_BORE,"17.366943200000000000,78.540221100000000000",17.3669432,78.5402211
328,1,3,E,7,Semi,Shaikpet,True,True,True,5000,BOTH,1,1575,35000,20,BHK3,CORP_BORE,"17.404975281456660000,78.403981583467110000",17.40497528145666,78.40398158346711
329,1,2,W,3,Semi,Moula Ali,False,True,True,1500,BOTH,5,1362,17000,5,BHK3,CORP_BORE,"17.459538830292427000,78.557694416371760000",17.459538830292427,78.55769441637176
330,2,2,N,2,Full,Madeenaguda ,False,True,True,1000,BOTH,1,1100,18000,4,BHK2,CORP_BORE,"17.492225873334020000,78.348040209001470000",17.49222587333402,78.34804020900147
331,1,3,E,9,Semi,Tellapur,True,True,True,2000,BOTH,0,1725,30000,12,BHK3,CORP_BORE,"17.463172000000000000,78.286481500000000000",17.463172,78.2864815
332,1,2,E,16,Semi,Gachibowli,True,True,True,3000,BOTH,1,1300,30000,17,BHK2,CORP_BORE,"17.432392999999994000,78.331046999999980000",17.432392999999994,78.33104699999998
333,2,3,E,5,Semi,kondapur,False,True,True,3000,BOTH,0,1450,33000,5,BHK3,CORP_BORE,"17.461509781071670000,78.370973446932850000",17.46150978107167,78.37097344693285
334,1,3,W,0,Semi,Sainikpuri,False,True,False,1000,BOTH,5,2780,22500,1,BHK4,CORP_BORE,"17.506484800000000000,78.554895800000000000",17.5064848,78.5548958
335,2,2,W,9,Full,Gopanpally,True,False,True,0,BOTH,3,1206,25000,9,BHK2,CORP_BORE,"17.455455000000000000,78.302776000000000000",17.455455,78.302776
336,2,2,W,9,Full,Gopanpally,True,False,True,0,BOTH,3,1206,25000,9,BHK2,CORP_BORE,"17.455455000000000000,78.302776000000000000",17.455455,78.302776
337,2,2,E,3,Semi,Kondapur,False,True,True,1500,BOTH,3,1250,20000,4,BHK2,BOREWELL,"17.461148500000000000,78.351908600000000000",17.4611485,78.3519086
338,2,3,W,1,Semi,Film Nagar Road Number 13,False,True,True,3000,BOTH,0,2000,33000,3,BHK3,CORP_BORE,"17.412134664729950000,78.404981084167960000",17.41213466472995,78.40498108416796
339,1,3,N,2,Semi,Jubilee Hills,False,True,True,2000,BOTH,1,1300,25000,5,BHK3,CORP_BORE,"17.438130717875370000,78.415693164418030000",17.43813071787537,78.41569316441803
340,0,2,N,2,Unfurnished,Gandamguda,False,True,False,500,TWO_WHEELER,0,900,10000,2,BHK2,CORP_BORE,"17.369029419810538000,78.387303128836050000",17.369029419810538,78.38730312883605
341,3,3,E,16,Full,Gachibowli,True,True,True,6000,BOTH,5,2422,60000,19,BHK3,CORP_BORE,"17.444791300000000000,78.366115900000000000",17.4447913,78.3661159
342,2,2,N,3,Semi,Malakpet,False,False,True,0,BOTH,3,1000,15000,3,BHK2,CORP_BORE,"17.372470057718350000,78.506763899999970000",17.37247005771835,78.50676389999997
343,1,4,W,0,Full,Bairamalguda,False,False,False,0,BOTH,0,1875,32200,1,BHK3,BOREWELL,"17.339632100000000000,78.542574700000020000",17.3396321,78.54257470000002
344,3,2,N,1,Semi,Venkat Nagar Colony,False,True,False,1500,BOTH,10,1000,16000,3,BHK2,CORP_BORE,"17.437070900000000000,78.483016700000000000",17.4370709,78.4830167
345,1,2,NE,2,Semi,Gachibowli,False,True,True,2000,BOTH,1,1560,27000,5,BHK3,CORP_BORE,"17.467831170420027000,78.340624247161260000",17.467831170420027,78.34062424716126
346,1,2,W,2,Semi,Kukatpally,False,True,True,1500,BOTH,5,1600,19500,4,BHK3,CORP_BORE,"17.491252100000000000,78.396869999999990000",17.4912521,78.39686999999999
347,1,3,W,1,Semi,Kavadiguda,True,True,True,1600,BOTH,3,1450,28000,5,BHK3,CORP_BORE,"17.409210225256800000,78.495595130688500000",17.4092102252568,78.4955951306885
348,3,3,W,4,Semi,Kothaguda,False,True,True,2000,BOTH,5,1600,26000,5,BHK3,CORP_BORE,"17.463575648518045000,78.367878364418050000",17.463575648518045,78.36787836441805
349,0,2,E,0,Semi,Old Bowenpally,False,True,False,800,BOTH,10,1500,16000,1,BHK2,CORPORATION,"17.480564400000000000,78.482108799999990000",17.4805644,78.48210879999999
350,2,3,N,4,Semi,Kondapur,False,True,True,1750,BOTH,3,1650,22000,5,BHK3,CORP_BORE,"17.468471200000000000,78.348816500000000000",17.4684712,78.3488165
351,2,3,E,1,Semi,"New Nallakunta,",False,True,True,2000,BOTH,5,1800,26000,5,BHK3,CORP_BORE,"17.400891378409977000,78.507998186508170000",17.400891378409977,78.50799818650817
352,1,3,S,1,Full,Khairatabad,False,True,True,3000,BOTH,5,1600,30000,5,BHK3,CORP_BORE,"17.415071000000000000,78.455356000000000000",17.415071,78.455356
353,1,2,E,5,Full,Masjid Banda,False,True,True,2000,BOTH,5,1351,30000,5,BHK3,CORP_BORE,"17.467456954160983000,78.350057702452990000",17.467456954160983,78.35005770245299
354,2,3,None,4,Semi,Kondapur,False,True,True,5000,BOTH,10,3000,40000,5,BHK3,CORPORATION,"17.458181374453183000,78.371011122684480000",17.458181374453183,78.37101112268448
355,2,2,W,4,Semi,Chanda Nagar,False,False,True,0,BOTH,5,1450,21000,4,BHK3,CORP_BORE,"17.492439100000000000,78.324887300000000000",17.4924391,78.3248873
356,2,3,E,3,Semi,Kondapur,False,True,True,2000,BOTH,10,2200,23000,5,BHK3,CORP_BORE,"17.468580000000000000,78.368117000000000000",17.46858,78.368117
357,2,3,E,3,Semi,Kondapur,False,True,True,2000,BOTH,10,2200,23000,5,BHK3,CORP_BORE,"17.468580000000000000,78.368117000000000000",17.46858,78.368117
358,3,3,E,3,Semi,Hafeezpet,False,True,True,2000,BOTH,5,1950,20000,5,BHK3,CORP_BORE,"17.484168300000000000,78.360294200000000000",17.4841683,78.3602942
359,1,3,N,1,Full,Upperpally,False,False,False,0,BOTH,3,2000,30000,2,BHK3,CORP_BORE,"17.353494900000033000,78.420750864418040000",17.353494900000033,78.42075086441804
360,2,3,W,4,Semi,Madhapur,False,True,True,2000,BOTH,3,1560,30000,5,BHK3,CORP_BORE,"17.440511300000000000,78.382821700000000000",17.4405113,78.3828217
361,1,1,E,4,Full,Kondapur,False,False,True,0,TWO_WHEELER,0,150,12000,6,RK1,CORP_BORE,"17.457666647076067000,78.363317995689730000",17.457666647076067,78.36331799568973
362,0,3,N,0,Unfurnished,"Old Alwal, Alwal",False,True,False,1000,BOTH,1,1500,19000,2,BHK3,CORP_BORE,"17.520462400000000000,78.500946800000000000",17.5204624,78.5009468
363,2,2,W,5,Semi,Manikonda,False,True,True,1000,FOUR_WHEELER,0,1350,20000,5,BHK3,CORP_BORE,"17.405616147320550000,78.379680026319860000",17.40561614732055,78.37968002631986
364,1,3,W,4,Full,Kothaguda,False,True,True,2000,BOTH,1,1460,30000,5,BHK3,CORP_BORE,"17.459746200000000000,78.368531199999990000",17.4597462,78.36853119999999
365,3,3,W,2,Semi,Manikonda,False,True,True,2000,BOTH,0,1580,26000,5,BHK3,BOREWELL,"17.414041334832472000,78.381939232313480000",17.414041334832472,78.38193923231348
366,2,2,W,1,Unfurnished,kompally,False,True,False,650,BOTH,5,1200,12000,2,BHK2,CORP_BORE,"17.529415073673000000,78.485710119049060000",17.529415073673,78.48571011904906
367,3,3,W,5,Semi,Gachibowli,True,True,True,4000,BOTH,0,1860,30000,15,BHK3,CORP_BORE,"17.414244700000000000,78.344478700000000000",17.4142447,78.3444787
368,0,2,E,0,Semi,Peerzadiguda,False,False,False,0,TWO_WHEELER,0,1000,12500,1,BHK2,CORP_BORE,"17.396707199999987000,78.587570199999990000",17.396707199999987,78.58757019999999
369,3,3,E,1,Semi,Kavadiguda,False,False,True,0,BOTH,3,1637,31000,14,BHK4,CORP_BORE,"17.418509500000000000,78.491228100000000000",17.4185095,78.4912281
370,2,3,W,2,Semi,Nizampet,False,True,True,2500,BOTH,0,1425,23000,5,BHK3,CORP_BORE,"17.506784786288550000,78.385782740492830000",17.50678478628855,78.38578274049283
371,2,2,E,2,Unfurnished,Sainikpuri,False,True,False,500,FOUR_WHEELER,10,1500,12000,4,BHK2,CORP_BORE,"17.489862212403455000,78.538796710986150000",17.489862212403455,78.53879671098615
372,0,3,None,4,Full,Nanakaramguda,True,True,True,3500,BOTH,3,1175,35000,30,BHK3,CORP_BORE,"17.423441796248294000,78.341291944094050000",17.423441796248294,78.34129194409405
373,3,3,NE,5,Semi,Serilingampally,False,True,True,1000,BOTH,1,1590,22000,5,BHK3,CORP_BORE,"17.477186600000000000,78.316490300000000000",17.4771866,78.3164903
374,2,3,N,1,Semi,Manikonda Jagir,False,True,True,1500,BOTH,3,1765,25000,4,BHK3,CORP_BORE,"17.419884967604563000,78.381968690046450000",17.419884967604563,78.38196869004645
375,1,2,W,3,Full,Begumpet,False,True,False,1300,BOTH,10,900,14000,3,BHK2,CORPORATION,"17.440976400000000000,78.481554100000000000",17.4409764,78.4815541
376,3,3,W,3,Semi,Kondapur,False,True,True,3000,BOTH,3,2002,34000,5,BHK3,CORP_BORE,"17.462888535068597000,78.368898361109960000",17.462888535068597,78.36889836110996
377,1,2,DK,0,Semi,Manikonda,True,True,True,3800,BOTH,0,1600,24000,6,BHK3,BOREWELL,"17.390227800000000000,78.373041399999990000",17.3902278,78.37304139999999
378,1,2,DK,0,Semi,Manikonda,True,True,True,3800,BOTH,0,1600,24000,6,BHK3,BOREWELL,"17.390227800000000000,78.373041399999990000",17.3902278,78.37304139999999
379,2,2,N,1,Semi,Manikonda,False,False,False,0,TWO_WHEELER,3,1200,15000,1,BHK2,BOREWELL,"17.406215500000000000,78.376348600000000000",17.4062155,78.3763486
380,1,1,E,0,Unfurnished,Uppal Bus Depot,False,True,False,500,TWO_WHEELER,0,750,6500,3,BHK1,CORP_BORE,"17.405333418794747000,78.589573071163940000",17.405333418794747,78.58957307116394
381,3,3,W,5,Semi,Gachibowli,True,True,True,3000,BOTH,3,1850,33000,5,BHK3,CORP_BORE,"17.436285376890783000,78.356763653372950000",17.436285376890783,78.35676365337295
382,1,2,N,1,Full,Hitec City,False,True,True,2000,BOTH,5,1100,30000,5,BHK2,CORP_BORE,"17.439041600000000000,78.384463099999990000",17.4390416,78.38446309999999
383,2,2,E,1,Semi,Habsiguda,False,True,False,1500,BOTH,5,2500,32000,1,BHK3,CORP_BORE,"17.416340500000000000,78.539665100000000000",17.4163405,78.5396651
384,2,3,None,21,Full,Gachibowli,True,False,True,0,BOTH,1,3410,100000,30,BHK3,CORP_BORE,"17.424600763490744000,78.347316364418020000",17.424600763490744,78.34731636441802
385,1,2,E,2,Semi,Serilingampally Municipal Office,True,True,True,3000,BOTH,3,1495,25000,7,BHK3,CORP_BORE,"17.469040768497827000,78.329014100000010000",17.469040768497827,78.32901410000001
386,2,2,E,2,Unfurnished,Boduppal Bus Stop,False,True,True,500,BOTH,5,1200,10000,5,BHK2,CORP_BORE,"17.422081100000000000,78.580433399999990000",17.4220811,78.58043339999999
387,2,3,S,2,Semi,Madhapur,False,True,True,2000,BOTH,5,1525,26000,5,BHK3,CORP_BORE,"17.444201900000000000,78.385976599999990000",17.4442019,78.38597659999999
388,2,3,E,1,Full,Attapur,False,True,False,1000,BOTH,5,3000,21000,2,BHK3,CORP_BORE,"17.463750400000000000,78.367493200000000000",17.4637504,78.3674932
389,1,3,W,12,Full,My Home Vihanga,True,True,True,4200,BOTH,1,1690,45000,14,BHK3,CORPORATION,"17.433838300000000000,78.332065200000000000",17.4338383,78.3320652
390,2,3,W,5,Semi,Kondapur,True,True,True,2500,BOTH,5,1885,25000,6,BHK3,CORP_BORE,"17.462146500000000000,78.343774799999990000",17.4621465,78.34377479999999
391,2,2,E,0,Semi,Miyapur,False,True,True,1500,BOTH,10,1300,16000,6,BHK3,CORP_BORE,"17.498382725055677000,78.335548312164300000",17.498382725055677,78.3355483121643
392,2,2,E,3,Semi,Shaikpet,False,True,True,1500,FOUR_WHEELER,0,1500,18500,5,BHK3,BOREWELL,"17.401653100000000000,78.390266300000000000",17.4016531,78.3902663
393,2,3,E,4,Full,Kondapur,False,True,True,3000,BOTH,3,1803,32000,5,BHK3,CORP_BORE,"17.460881000000000000,78.362708000000000000",17.460881,78.362708
394,3,2,E,3,Semi,Madhapur,False,True,True,2000,BOTH,10,1550,17500,4,BHK2,CORP_BORE,"17.439135400000000000,78.392115700000000000",17.4391354,78.3921157
395,1,2,E,4,Semi,Kondapur,False,True,True,2000,BOTH,0,1000,15500,5,BHK2,CORP_BORE,"17.460759736200174000,78.352991822701840000",17.460759736200174,78.35299182270184
396,3,2,S,1,Semi,West Marredpally,False,True,False,1500,BOTH,10,1700,20000,1,BHK2,CORP_BORE,"17.448237314034913000,78.503211140089430000",17.448237314034913,78.50321114008943
397,1,2,None,2,Semi,Borabanda,False,False,True,0,BOTH,0,1400,20000,5,BHK2,BOREWELL,"17.458243327661982000,78.404244512585590000",17.458243327661982,78.40424451258559
398,0,2,None,2,Semi,Kondapur,False,True,True,1500,BOTH,0,1200,22000,5,BHK2,None,"17.473268831436425000,78.347413540323150000",17.473268831436425,78.34741354032315
399,0,2,None,2,Semi,Kondapur,False,True,True,1500,BOTH,0,1200,22000,5,BHK2,None,"17.473268831436425000,78.347413540323150000",17.473268831436425,78.34741354032315
400,3,3,N,2,Unfurnished,Rajak Street,False,True,False,1000,BOTH,0,1800,13000,2,BHK3,CORP_BORE,"17.337340100000000000,78.404696300000000000",17.3373401,78.4046963
401,2,4,E,0,Semi,Hyderabad,True,False,True,0,BOTH,0,3990,75000,2,BHK4,CORPORATION,"17.460414890000000000,78.304336550000000000",17.46041489,78.30433655
402,1,3,E,3,Semi,Puppalguda,True,False,True,0,BOTH,0,1800,37000,26,BHK3,CORPORATION,"17.398211600000000000,78.374851300000000000",17.3982116,78.3748513
403,2,3,N,2,Semi,Madhapur,True,True,True,2849,BOTH,3,1266,28000,5,BHK3,CORP_BORE,"17.458129399999997000,78.382983300000000000",17.458129399999997,78.3829833
404,3,3,W,1,Semi,"Laxmi Narashima Puram Colony,",False,False,False,0,BOTH,3,1800,20000,2,BHK3,CORP_BORE,"17.332247520837477000,78.542867382209010000",17.332247520837477,78.54286738220901
405,1,3,W,0,Unfurnished,Kukatpally,False,False,False,0,TWO_WHEELER,10,1200,18000,0,BHK2,CORP_BORE,"17.503933554817788000,78.413211442530160000",17.503933554817788,78.41321144253016
406,2,3,E,2,Full,Banjara Hills,False,True,True,2500,BOTH,5,2000,60000,3,BHK3,CORP_BORE,"17.413314400000000000,78.430667700000010000",17.4133144,78.43066770000001
407,1,3,E,4,Semi,Madhapur,False,True,True,2000,BOTH,3,1750,32000,4,BHK3,CORP_BORE,"17.444103900000000000,78.400498399999990000",17.4441039,78.40049839999999
408,2,3,E,8,Semi,Kukatpally,False,True,False,3000,BOTH,1,1762,34000,12,BHK3,CORPORATION,"17.475953900000000000,78.385050700000000000",17.4759539,78.3850507
409,0,3,None,13,Semi,Rajendranagar nagar ,True,False,True,0,BOTH,1,1910,30000,15,BHK3,None,"17.349987748197440000,78.360258923942570000",17.34998774819744,78.36025892394257
410,2,3,NE,4,Semi,"Nallagandla, Serilingampally",False,True,True,3000,BOTH,0,1512,25000,5,BHK3,BOREWELL,"17.474778500000000000,78.310291800000000000",17.4747785,78.3102918
411,0,3,E,1,Semi,Bhoiguda,False,False,False,0,BOTH,5,2100,16000,1,BHK4,CORPORATION,"17.426171825402218000,78.499185835581950000",17.426171825402218,78.49918583558195
412,2,2,E,5,Semi,Kukatpally,False,True,True,1000,BOTH,10,1053,15000,6,BHK2,CORP_BORE,"17.485546600000028000,78.390638264418030000",17.485546600000028,78.39063826441803
413,1,3,E,4,Semi,KONDAPUR ,False,True,True,2000,BOTH,1,1490,26000,4,BHK3,CORP_BORE,"17.468198792577848000,78.349854728836080000",17.468198792577848,78.34985472883608
414,1,2,W,3,Semi,Nizampet,True,True,True,1000,BOTH,3,1150,15000,5,BHK2,CORP_BORE,"17.519733100000000000,78.385060700000000000",17.5197331,78.3850607
415,3,4,W,2,Semi,Gachibowli,True,True,True,5800,BOTH,10,2270,36000,15,BHK4,CORP_BORE,"17.432623100000000000,78.362026000000000000",17.4326231,78.362026
416,1,5,N,6,Semi,Jubilee Hills,False,True,True,5000,BOTH,3,3500,70000,6,BHK4PLUS,CORP_BORE,"17.444795200000000000,78.399864200000000000",17.4447952,78.3998642
417,2,2,W,2,Semi,Chanda Nagar,False,True,True,2500,BOTH,5,1450,20000,5,BHK3,CORP_BORE,"17.489764500000000000,78.341334899999990000",17.4897645,78.34133489999999
418,2,2,E,2,Semi,Kukatpally,False,True,True,1200,BOTH,3,1100,20000,5,BHK2,CORP_BORE,"17.477930600000000000,78.379017100000060000",17.4779306,78.37901710000006
419,1,2,E,1,Semi,Golden Heights Colony,False,True,True,2000,BOTH,0,1200,12000,4,BHK2,CORP_BORE,"17.348638845021647000,78.412751994880860000",17.348638845021647,78.41275199488086
420,1,2,E,1,Semi,Golden Heights Colony,False,True,True,2000,BOTH,0,1200,12000,4,BHK2,CORP_BORE,"17.348638845021647000,78.412751994880860000",17.348638845021647,78.41275199488086
421,1,2,E,2,Semi,Shaikpet,False,True,True,1500,BOTH,3,1100,17500,4,BHK2,CORP_BORE,"17.407346500000000000,78.387280500000000000",17.4073465,78.3872805
422,0,2,E,5,Semi, Kukatpally,False,True,True,1000,BOTH,5,925,14000,5,BHK2,CORP_BORE,"17.502861070806077000,78.389474625230390000",17.502861070806077,78.38947462523039
423,1,2,E,9,Unfurnished,Narsingi,True,True,True,3000,BOTH,1,1465,25000,9,BHK3,BOREWELL,"17.394021000000000000,78.356185000000000000",17.394021,78.356185
424,1,2,DK,3,Semi,KPHB 6th Phase Road,False,True,True,1500,BOTH,1,1200,17000,4,BHK3,CORP_BORE,"17.489242300000000000,78.383715000000000000",17.4892423,78.383715
425,3,3,W,7,Full,Kondapur,False,True,True,3600,BOTH,5,2200,40000,7,BHK3,CORP_BORE,"17.462763700000000000,78.345026800000000000",17.4627637,78.3450268
426,0,3,None,9,Semi,Kukatpally,True,True,True,6250,BOTH,3,1818,38000,35,BHK3,None,"17.475082000000000000,78.391995000000000000",17.475082,78.391995
427,2,2,E,2,Semi,Manikonda,False,False,False,0,BOTH,10,1250,15000,3,BHK2,CORP_BORE,"17.397356900000000000,78.387246500000000000",17.3973569,78.3872465
428,3,3,E,8,Semi,Gachibowli,True,True,True,4999,BOTH,1,1400,35000,14,BHK3,CORPORATION,"17.413940000000000000,78.344307000000000000",17.41394,78.344307
429,2,2,NW,2,Semi,Serilingampally,True,True,True,1800,TWO_WHEELER,3,1150,23000,5,BHK2,CORP_BORE,"17.469186012973427000,78.344825642991640000",17.469186012973427,78.34482564299164
430,1,3,E,2,Semi,Kukatpally,False,False,True,0,BOTH,1,1500,20000,4,BHK3,CORP_BORE,"17.503126200000000000,78.395998499999990000",17.5031262,78.39599849999999
431,2,3,W,9,Semi,NARSINGI,True,True,True,4000,BOTH,0,1670,30000,9,BHK3,CORPORATION,"17.386949400000000000,78.357377200000000000",17.3869494,78.3573772
432,1,3,None,8,Semi,Gachibowli,True,True,True,5000,BOTH,5,1756,36000,12,BHK3,CORP_BORE,"17.441470000000000000,78.344023000000000000",17.44147,78.344023
433,1,2,NW,2,Semi,Toli Chowki,False,True,False,300,TWO_WHEELER,1,1500,14000,2,BHK3,CORP_BORE,"17.397579342954817000,78.402959331278900000",17.397579342954817,78.4029593312789
434,2,3,E,1,Unfurnished,"Whitefields, Kondapur",False,True,False,1500,BOTH,5,1250,20000,5,BHK3,CORP_BORE,"17.454696610469547000,78.365659555769300000",17.454696610469547,78.3656595557693
435,3,3,E,4,Semi,Gachibowli,True,False,True,0,BOTH,0,1740,35000,14,BHK3,CORP_BORE,"17.414190808953080000,78.344446474868770000",17.41419080895308,78.34444647486877
436,2,2,E,1,Unfurnished,Bharat Heavy Electricals Limited,False,False,False,0,BOTH,0,2000,12000,2,BHK2,CORP_BORE,"17.506088673989110000,78.284569340361360000",17.50608867398911,78.28456934036136
437,1,3,W,4,Semi,Lakdikapul,False,True,True,2000,BOTH,1,1580,31000,5,BHK3,CORP_BORE,"17.403745166737412000,78.465435520918860000",17.403745166737412,78.46543552091886
438,2,3,N,1,Full,Nanakramguda,False,True,True,10000,BOTH,1,1890,50000,27,BHK3,CORP_BORE,"17.424280000000000000,78.347193999999970000",17.42428,78.34719399999997
439,2,2,DK,5,Semi,Kondapur,False,True,True,2000,BOTH,10,1500,27000,5,BHK3,CORP_BORE,"17.459061742041623000,78.370850262565630000",17.459061742041623,78.37085026256563
440,1,2,N,1,Full,Miyapur,False,False,True,0,BOTH,1,1122,17000,5,BHK2,CORP_BORE,"17.518617168776320000,78.320988961376970000",17.51861716877632,78.32098896137697
441,1,2,N,1,Full,Miyapur,False,False,True,0,BOTH,1,1122,17000,5,BHK2,CORP_BORE,"17.518617168776320000,78.320988961376970000",17.51861716877632,78.32098896137697
442,0,3,None,5,Semi,Basheer Bagh,True,True,False,2500,FOUR_WHEELER,3,2500,40000,5,BHK3,CORP_BORE,"17.399651905313030000,78.479647924940960000",17.39965190531303,78.47964792494096
443,1,2,N,2,Unfurnished,Shaikpet,False,False,False,0,TWO_WHEELER,5,1000,13000,2,BHK2,CORP_BORE,"17.403870863056980000,78.398849292642070000",17.40387086305698,78.39884929264207
444,1,3,E,5,Semi,Gandipet,True,True,True,5000,BOTH,0,1910,35000,8,BHK3,CORP_BORE,"17.384248000000000000,78.328309000000000000",17.384248,78.328309
445,2,3,E,4,Semi,Narsingi,False,True,True,2000,BOTH,0,1836,25000,5,BHK3,BOREWELL,"17.389586500000000000,78.365818500000000000",17.3895865,78.3658185
446,1,3,E,5,Semi,Kondapur,True,True,True,2000,BOTH,3,1495,23000,5,BHK3,CORP_BORE,"17.465428000000000000,78.341501000000000000",17.465428,78.341501
447,1,2,E,2,Semi,Gajularamaram,False,True,True,500,BOTH,0,1100,13000,3,BHK2,BOREWELL,"17.527025199999997000,78.421237606745950000",17.527025199999997,78.42123760674595
448,2,3,N,3,Full,Kondapur ,False,True,True,2000,BOTH,10,1500,32500,5,BHK3,CORP_BORE,"17.459376021744482000,78.366186932870700000",17.459376021744482,78.3661869328707
449,2,3,N,2,Semi,Alluri Seetaramaraju Nagar,False,True,True,1500,BOTH,1,2000,23000,3,BHK3,CORP_BORE,"17.505566000000000000,78.377757000000000000",17.505566,78.377757
450,3,3,E,3,Semi,Gachibowli,False,True,True,2000,BOTH,3,1820,30000,5,BHK3,CORP_BORE,"17.440080200000000000,78.348916800000000000",17.4400802,78.3489168
451,0,2,E,1,Semi,Pragathi Nagar,False,True,True,1500,BOTH,0,1150,15500,5,BHK2,None,"17.531526312136720000,78.391456700524880000",17.53152631213672,78.39145670052488
452,1,2,E,22,Semi,Nanakramguda,True,True,True,5000,FOUR_WHEELER,0,1485,35000,30,BHK3,CORP_BORE,"17.426628700000000000,78.341124100000000000",17.4266287,78.3411241
453,2,3,E,12,Semi,Gachibowli,True,True,True,3000,BOTH,1,1695,37000,14,BHK3,CORP_BORE,"17.413940000000000000,78.344307000000000000",17.41394,78.344307
454,0,1,E,0,Unfurnished,Beeramguda,False,False,False,0,BOTH,10,650,7000,0,BHK2,CORPORATION,"17.524537963981576000,78.298621743377650000",17.524537963981576,78.29862174337765
455,3,3,W,3,Semi,Manikonda,False,True,True,2000,FOUR_WHEELER,3,2055,25000,5,BHK3,CORP_BORE,"17.413365000000000000,78.387291600000000000",17.413365,78.3872916
456,2,2,E,1,Semi,Kukatpally Housing Board Road,False,True,True,1100,BOTH,5,1400,15000,5,BHK2,CORPORATION,"17.487533000000000000,78.386801100000000000",17.487533,78.3868011
457,3,3,W,4,Semi,Tellapur,True,True,True,4000,BOTH,1,2010,17000,5,BHK3,CORP_BORE,"17.446093000000000000,78.253516000000000000",17.446093,78.253516
458,2,2,E,3,Semi,Kondapur,False,True,True,1500,BOTH,1,1585,22900,4,BHK3,CORP_BORE,"17.401194600000000000,78.371574799999990000",17.4011946,78.37157479999999
459,3,3,W,4,Semi,Manikonda ,False,True,True,2000,BOTH,1,1960,22000,12,BHK3,CORPORATION,"17.417216800000000000,78.371594800000000000",17.4172168,78.3715948
460,3,3,W,3,Semi,Serilingampally,True,True,True,6000,BOTH,0,1960,29000,14,BHK3,CORP_BORE,"17.469901699999990000,78.310370200000000000",17.46990169999999,78.3103702
461,2,3,E,3,Semi,Shaikpet,True,True,True,3000,BOTH,3,1836,32500,7,BHK3,CORP_BORE,"17.400111288554875000,78.414232010681150000",17.400111288554875,78.41423201068115
462,2,3,E,3,Semi,Shaikpet,True,True,True,3000,BOTH,3,1836,32500,7,BHK3,CORP_BORE,"17.400111288554875000,78.414232010681150000",17.400111288554875,78.41423201068115
463,2,2,E,2,Unfurnished,Nagole,False,True,True,1500,BOTH,3,1155,13000,4,BHK2,CORP_BORE,"17.368245900000000000,78.568480599999930000",17.3682459,78.56848059999993
464,1,3,W,3,Semi,Narsingi,True,True,True,5000,BOTH,0,2025,30000,5,BHK3,CORP_BORE,"17.380854200000000000,78.347186100000000000",17.3808542,78.3471861
465,2,2,E,2,Semi,"Anand Nagar Colony, Khairtabad",False,True,False,1500,BOTH,5,1200,16000,4,BHK2,CORP_BORE,"17.412668400000000000,78.450331499999990000",17.4126684,78.45033149999999
466,2,2,N,3,Unfurnished,Miyapur,False,True,True,1000,BOTH,3,1300,14000,4,BHK2,CORP_BORE,"17.494916176150028000,78.356436025552600000",17.494916176150028,78.3564360255526
467,1,3,E,25,Semi,Kukatpally,True,True,True,4000,BOTH,0,1740,37000,28,BHK3,CORP_BORE,"17.476947100000000000,78.390639999999990000",17.4769471,78.39063999999999
468,3,3,N,2,Full,Panjagutta,False,True,True,3500,BOTH,1,2500,55000,4,BHK3,CORP_BORE,"17.426510885915608000,78.451130736211010000",17.426510885915608,78.45113073621101
469,2,3,NW,4,Semi,Hitech City,True,True,True,4000,BOTH,1,2189,45000,7,BHK3,CORP_BORE,"17.455119500000000000,78.376898099999990000",17.4551195,78.37689809999999
470,2,3,W,2,Semi,Nallagandla,True,True,True,2000,BOTH,0,1692,23000,5,BHK3,CORP_BORE,"17.475741153229330000,78.302842358860760000",17.47574115322933,78.30284235886076
471,2,3,E,2,Semi,Hastinapuram,False,True,True,1000,BOTH,0,1699,19500,2,BHK3,CORP_BORE,"17.330913000000000000,78.542138999999990000",17.330913,78.54213899999999
472,2,3,E,3,Semi,Raghuram Heights,False,True,True,2500,BOTH,10,1600,26000,5,BHK3,CORP_BORE,"17.456156100000000000,78.371023299999990000",17.4561561,78.37102329999999
473,2,2,N,2,Semi,Kondapur,False,True,True,2000,BOTH,5,1085,18000,5,BHK2,CORP_BORE,"17.466352200000000000,78.362622800000000000",17.4663522,78.3626228
474,1,2,None,1,Semi,Kondapur,True,True,True,2500,BOTH,3,1350,23000,5,BHK3,CORP_BORE,"17.467060700000000000,78.339220700000000000",17.4670607,78.3392207
475,0,2,SE,1,Unfurnished,Hitec City,False,True,True,1200,BOTH,10,1180,25000,4,BHK2,CORPORATION,"17.442401000000000000,78.385909900000000000",17.442401,78.3859099
476,0,2,E,3,Semi,Borabanda,False,False,True,0,BOTH,0,1400,20000,5,BHK2,None,"17.458227975730130000,78.404201597244950000",17.45822797573013,78.40420159724495
477,2,2,N,3,Semi,Attapur,False,True,True,2000,BOTH,0,1300,15000,6,BHK2,CORP_BORE,"17.366734859624227000,78.428508399999980000",17.366734859624227,78.42850839999998
478,2,2,N,5,Semi,Gowdavalli,True,False,True,0,BOTH,0,1199,15000,11,BHK2,CORP_BORE,"17.598012000000000000,78.468302000000000000",17.598012,78.468302
479,2,3,E,2,Semi,A S Rao Nagar,False,False,False,0,BOTH,0,1600,21500,2,BHK3,CORP_BORE,"17.479623141645142000,78.558579128836060000",17.479623141645142,78.55857912883606
480,3,3,N,3,Semi,Gulmohar Park Colony,False,False,True,0,BOTH,3,2500,30000,4,BHK3,CORP_BORE,"17.474868600000000000,78.317364099999990000",17.4748686,78.31736409999999
481,1,1,E,1,Unfurnished,Hafeezpet,False,True,True,500,TWO_WHEELER,1,880,8000,5,BHK1,CORP_BORE,"17.480197800000000000,78.357076800000000000",17.4801978,78.3570768
482,2,3,W,1,Semi,Kondapur,False,True,True,2000,BOTH,1,1630,23000,5,BHK3,CORP_BORE,"17.464226000000004000,78.356992999999990000",17.464226000000004,78.35699299999999
483,2,3,W,1,Semi,Kondapur,False,True,True,2000,BOTH,1,1630,23000,5,BHK3,CORP_BORE,"17.464226000000004000,78.356992999999990000",17.464226000000004,78.35699299999999
484,1,3,E,3,Semi,Kondapur,False,True,True,2000,BOTH,3,1455,23000,5,BHK3,CORPORATION,"17.462461400000000000,78.346189900000000000",17.4624614,78.3461899
485,2,4,E,0,Semi,Manikonda,True,True,True,7500,BOTH,3,2549,45000,33,BHK3,CORPORATION,"17.409257000000000000,78.376859000000000000",17.409257,78.376859
486,2,1,E,1,Semi,Shamshabad,False,True,False,500,BOTH,3,1200,10000,3,BHK2,CORP_BORE,"17.264172000000000000,78.397020500000000000",17.264172,78.3970205
487,1,3,E,4,Semi,Kondapur,False,True,True,2000,BOTH,1,1503,22000,5,BHK3,CORP_BORE,"17.458213000000000000,78.364113000000000000",17.458213,78.364113
488,2,2,W,2,Semi,Kondapur,False,True,True,1500,BOTH,3,1100,20000,4,BHK2,CORP_BORE,"17.466752200000000000,78.359097900000000000",17.4667522,78.3590979
489,2,1,N,2,Unfurnished,Kukatpally ,False,False,False,0,TWO_WHEELER,10,1000,11000,3,BHK2,CORPORATION,"17.481451100000000000,78.391422500000000000",17.4814511,78.3914225
490,1,3,N,1,Full,Gachibowli,False,False,True,0,BOTH,0,1955,60000,30,BHK3,CORPORATION,"17.424597100000000000,78.347313399999990000",17.4245971,78.34731339999999
491,3,5,E,6,Semi,Gachibowli,False,True,True,6000,BOTH,1,2906,45000,7,BHK4,CORP_BORE,"17.439133000000000000,78.367805000000000000",17.439133,78.367805
492,2,3,E,2,Semi,Kondapur,False,True,True,3000,FOUR_WHEELER,10,1900,27000,5,BHK3,CORP_BORE,"17.454689600000000000,78.366978699999990000",17.4546896,78.36697869999999
493,1,3,E,0,Semi,Kondapur,False,True,True,5400,BOTH,0,2071,36000,7,BHK3,CORP_BORE,"17.470713000000000000,78.369820600000000000",17.470713,78.3698206
494,2,2,E,5,Semi,Kondapur,False,True,True,3000,TWO_WHEELER,10,1108,18000,5,BHK2,None,"17.469360600000000000,78.367350800000000000",17.4693606,78.3673508
495,2,2,NE,2,Semi,Gachibowli,False,True,True,3000,BOTH,3,1000,20000,4,BHK2,CORP_BORE,"17.440675702686900000,78.366722005557260000",17.4406757026869,78.36672200555726
496,2,3,E,3,Semi,Puppalaguda,False,True,True,5000,BOTH,0,2052,35000,5,BHK3,CORP_BORE,"17.399550800000000000,78.365070100000000000",17.3995508,78.3650701
497,0,3,E,1,Unfurnished,Dwaraka Nagar Phase 2,False,True,True,2000,BOTH,1,2500,20000,1,BHK3,CORP_BORE,"17.519958158685434000,78.421780094504360000",17.519958158685434,78.42178009450436
498,0,1,E,3,Semi,Kukatpally,False,False,False,0,TWO_WHEELER,0,600,9000,4,BHK1,CORP_BORE,"17.498820300000000000,78.424215199999990000",17.4988203,78.42421519999999
499,2,3,W,4,Semi,Ramachandrapuram,True,False,True,0,FOUR_WHEELER,0,1500,19000,5,BHK3,CORP_BORE,"17.519243900000000000,78.306624599999990000",17.5192439,78.30662459999999
500,1,1,N,6,Unfurnished,Bachupally,False,True,True,1000,TWO_WHEELER,0,900,9500,6,BHK1,BOREWELL,"17.533888000000000000,78.357450000000000000",17.533888,78.35745
501,3,2,E,1,Semi,Tarnaka,False,True,False,1200,BOTH,10,1250,15500,3,BHK2,CORP_BORE,"17.427293741565148000,78.539069406688210000",17.427293741565148,78.53906940668821
502,1,2,E,4,Semi,Miyapur,False,True,True,1500,BOTH,5,1100,19000,5,BHK2,CORP_BORE,"17.492478100000000000,78.340234900000000000",17.4924781,78.3402349
503,0,3,None,0,Semi,BHEL Colony,False,False,False,0,TWO_WHEELER,10,1000,8500,1,BHK2,None,"17.503930807055077000,78.309941598711150000",17.503930807055077,78.30994159871115
504,0,3,None,0,Semi,BHEL Colony,False,False,False,0,TWO_WHEELER,10,1000,8500,1,BHK2,None,"17.503930807055077000,78.309941598711150000",17.503930807055077,78.30994159871115
505,2,2,E,1,Semi,Kondapur,False,True,True,1500,BOTH,1,1100,18000,4,BHK2,CORP_BORE,"17.469857700000000000,78.357824599999990000",17.4698577,78.35782459999999
506,2,2,None,0,Unfurnished,Hayathnagar,False,False,False,0,BOTH,0,1200,9000,1,BHK2,None,"17.329118568165537000,78.587602538656100000",17.329118568165537,78.5876025386561
507,1,2,W,1,Semi,Sainik Puri ,False,True,True,1000,FOUR_WHEELER,0,1170,10500,4,BHK2,BOREWELL,"17.485412166663643000,78.529169787358200000",17.485412166663643,78.5291697873582
508,2,3,N,4,Semi,Moula Ali,False,True,True,1000,BOTH,3,1350,13000,4,BHK3,CORPORATION,"17.472334400000000000,78.558743300000000000",17.4723344,78.5587433
509,0,2,None,1,Semi,"Bandlaguda Jagir,",False,False,False,0,TWO_WHEELER,0,1350,12500,1,BHK3,None,"17.360772111961786000,78.397800887673030000",17.360772111961786,78.39780088767303
510,1,2,NE,2,Full,Himayatnagar,False,True,False,1200,FOUR_WHEELER,10,1000,17000,2,BHK2,CORP_BORE,"17.402306846934685000,78.483975695700830000",17.402306846934685,78.48397569570083
511,0,3,N,1,Semi, Nizampet,True,True,True,1500,BOTH,5,1350,16000,6,BHK3,None,"17.512963071014372000,78.385489122701830000",17.512963071014372,78.38548912270183
512,1,2,E,2,Semi,Road Number 5,False,True,True,1000,BOTH,0,1250,25000,3,BHK2,CORP_BORE,"17.413233881666230000,78.369573578238490000",17.41323388166623,78.36957357823849
513,1,2,E,7,Semi,Tellapur,True,False,True,0,FOUR_WHEELER,3,1110,22000,12,BHK2,CORP_BORE,"17.466581737041590000,78.312377771065780000",17.46658173704159,78.31237777106578
514,2,2,E,1,Semi,Kondapur ,False,True,False,2000,BOTH,0,1100,18000,4,BHK2,CORP_BORE,"17.469847366166313000,78.362679127647400000",17.469847366166313,78.3626791276474
515,2,2,W,0,Semi,Miyapur,False,False,False,0,BOTH,0,1240,9500,1,BHK2,CORP_BORE,"17.515655264097983000,78.319769031865760000",17.515655264097983,78.31976903186576
516,1,2,W,4,Unfurnished,Kothapet,False,True,False,1500,BOTH,10,1000,9500,5,BHK2,CORP_BORE,"17.367186800000000000,78.548967800000010000",17.3671868,78.54896780000001
517,2,2,N,4,Semi,Miyapur,False,True,True,1200,BOTH,5,1450,23000,5,BHK3,CORPORATION,"17.485014700000000000,78.360130500000000000",17.4850147,78.3601305
518,2,2,S,1,Unfurnished,Dilsukhnagar Metro station,False,True,False,1200,FOUR_WHEELER,10,920,12000,3,BHK2,CORPORATION,"17.364812318157740000,78.528430293481150000",17.36481231815774,78.52843029348115
519,3,2,E,3,Semi,Toli Chowki,False,False,False,0,TWO_WHEELER,5,1400,12000,4,BHK2,CORP_BORE,"17.401277959454138000,78.401864546627040000",17.401277959454138,78.40186454662704
520,1,2,N,2,Unfurnished,Sri Gayathri Nilayam,False,False,False,0,TWO_WHEELER,10,680,10000,3,BHK2,CORP_BORE,"17.407008000000000000,78.509250999999990000",17.407008,78.50925099999999
521,0,2,E,4,Semi,Boduppal,False,False,True,0,BOTH,0,1280,13500,4,BHK2,BOREWELL,"17.426380680335097000,78.568469515205360000",17.426380680335097,78.56846951520536
522,2,3,E,4,Semi,Mehdipatnam,False,True,True,2000,FOUR_WHEELER,10,1500,20000,6,BHK3,None,"17.386677200000000000,78.436359200000000000",17.3866772,78.4363592
523,1,2,W,4,Unfurnished,Chanda Nagar,False,True,True,1000,BOTH,3,885,12000,4,BHK2,CORP_BORE,"17.502155000000000000,78.319033000000000000",17.502155,78.319033
524,0,1,None,1,Unfurnished,Chanda Nagar,False,False,False,0,TWO_WHEELER,1,550,7500,2,BHK1,None,"17.489803007221187000,78.322179793711910000",17.489803007221187,78.32217979371191
525,0,1,None,1,Unfurnished,Chanda Nagar,False,False,False,0,TWO_WHEELER,1,550,7500,2,BHK1,None,"17.489803007221187000,78.322179793711910000",17.489803007221187,78.32217979371191
526,2,2,W,4,Unfurnished,Sai Sohan Children Clinic,False,True,True,1400,FOUR_WHEELER,10,1100,11500,5,BHK2,CORP_BORE,"17.497462981423233000,78.362817301921840000",17.497462981423233,78.36281730192184
527,1,3,W,6,Unfurnished,Balanagar Township,False,True,True,2000,BOTH,0,1462,18000,9,BHK3,CORP_BORE,"17.490020600000000000,78.452032100000000000",17.4900206,78.4520321
528,2,1,N,2,Full,Kukatpally,False,False,False,0,BOTH,0,800,15000,2,BHK1,CORPORATION,"17.474209633505726000,78.393287001300700000",17.474209633505726,78.3932870013007
529,1,3,W,1,Semi,Gachibowli,False,True,True,4499,BOTH,1,1740,35000,17,BHK3,CORP_BORE,"17.432393000000000000,78.331047000000000000",17.432393,78.331047
530,3,3,E,3,Full,Film Nagar,False,True,True,2000,BOTH,5,1800,40000,3,BHK3,CORP_BORE,"17.413630570671040000,78.405073955655100000",17.41363057067104,78.4050739556551
531,1,2,W,1,Full,Miyapur,True,True,True,2000,BOTH,5,1350,17000,5,BHK2,CORPORATION,"17.498822716169624000,78.336090118385310000",17.498822716169624,78.33609011838531
532,1,2,W,2,Semi,Sai krupa heights,False,True,True,1200,BOTH,0,1152,19500,5,BHK2,BOREWELL,"17.486390200000000000,78.341615199999990000",17.4863902,78.34161519999999
533,1,1,E,2,Unfurnished,Mayuri Nagar,False,True,False,200,BOTH,3,450,7800,3,BHK1,CORP_BORE,"17.508597757773607000,78.304474147900100000",17.508597757773607,78.3044741479001
534,2,2,E,0,Semi,1 Road Number 10,False,False,False,0,TWO_WHEELER,1,1550,14000,2,BHK2,CORP_BORE,"17.518998346539956000,78.384296223521230000",17.518998346539956,78.38429622352123
535,2,2,E,2,Unfurnished,Manikonda,False,True,False,1500,BOTH,5,980,12500,5,BHK2,CORP_BORE,"17.406215500000000000,78.376348600000000000",17.4062155,78.3763486
536,0,1,SE,2,Semi,Barkatpura,False,True,False,50,NONE,5,500,11000,2,BHK1,CORPORATION,"17.393676400000000000,78.498655900000000000",17.3936764,78.4986559
537,0,2,None,3,Unfurnished,Miyapur,False,True,False,500,BOTH,1,1120,10500,4,BHK2,None,"17.527641869285137000,78.317218873016340000",17.527641869285137,78.31721887301634
538,1,1,E,1,Unfurnished,Tulasi Nagar Community Hall,False,True,False,250,TWO_WHEELER,-1,500,8000,1,BHK1,CORP_BORE,"17.456934867866288000,78.401105962693690000",17.456934867866288,78.40110596269369
539,2,2,E,2,Semi,Miyapur,False,True,True,2000,BOTH,0,1170,17000,4,BHK2,CORP_BORE,"17.494129077779760000,78.367212511778260000",17.49412907777976,78.36721251177826
540,0,4,None,0,Unfurnished,Madeenaguda,False,True,False,3000,BOTH,5,3000,40000,2,BHK4,None,"17.490131980548256000,78.342740845403670000",17.490131980548256,78.34274084540367
541,1,2,E,1,Full,Madinaguda,False,True,True,2000,TWO_WHEELER,3,1200,20,4,BHK3,CORP_BORE,"17.503306066097572000,78.340760636523440000",17.503306066097572,78.34076063652344
542,2,2,N,1,Semi,Hayathnagar_Khalsa,False,True,False,500,TWO_WHEELER,5,1500,13000,2,BHK2,CORP_BORE,"17.333859266503610000,78.597705177962780000",17.33385926650361,78.59770517796278
543,1,2,W,3,Full,Mehdipatnam,False,False,False,0,BOTH,3,1100,22000,3,BHK2,CORP_BORE,"17.385684658614654000,78.432817725131120000",17.385684658614654,78.43281772513112
544,1,2,DK,4,Unfurnished,Serilingampally,False,True,True,800,BOTH,5,700,12500,5,BHK2,CORPORATION,"17.483272900000000000,78.326660600000000000",17.4832729,78.3266606
545,2,2,W,1,Semi,Sainikpuri,False,False,False,0,BOTH,5,1650,18000,2,BHK3,CORP_BORE,"17.493506188252198000,78.548184692156520000",17.493506188252198,78.54818469215652
546,2,2,W,1,Semi,Sainikpuri,False,False,False,0,BOTH,5,1650,18000,2,BHK3,CORP_BORE,"17.493506188252198000,78.548184692156520000",17.493506188252198,78.54818469215652
547,1,1,None,2,Unfurnished,East Marredpally,False,False,False,0,BOTH,5,850,8000,2,BHK1,CORPORATION,"17.447628400000000000,78.513696200000000000",17.4476284,78.5136962
548,0,2,None,1,Unfurnished,Ramachandrapuram,False,True,False,700,TWO_WHEELER,5,1000,9000,2,BHK2,None,"17.505946231938214000,78.309725317791020000",17.505946231938214,78.30972531779102
549,2,3,W,0,Semi,Nizampet,False,True,True,1500,BOTH,5,1750,17000,5,BHK3,CORP_BORE,"17.509938030459768000,78.377159276126870000",17.509938030459768,78.37715927612687
550,0,1,E,0,Semi,"Ganesh Nagar, Ramanthapur",False,True,True,1000,TWO_WHEELER,10,900,12500,4,BHK2,CORP_BORE,"17.396059600000000000,78.531655700000000000",17.3960596,78.5316557
551,0,2,N,0,Semi,Uppal,False,False,False,0,TWO_WHEELER,3,600,5000,1,BHK2,CORP_BORE,"17.394091995969408000,78.594904464542240000",17.394091995969408,78.59490446454224
552,1,2,E,1,Unfurnished,Ameenpur Village,False,False,False,0,BOTH,3,1125,8500,1,BHK2,CORPORATION,"17.523784100000000000,78.322878000000000000",17.5237841,78.322878
553,0,2,W,0,Unfurnished,Ramanthapur,False,False,False,0,TWO_WHEELER,10,1000,7500,2,BHK2,CORP_BORE,"17.388123668256505000,78.532585901813040000",17.388123668256505,78.53258590181304
554,0,1,None,1,Unfurnished,Nizampet,False,False,False,0,NONE,10,300,6500,1,RK1,None,"17.506208913315614000,78.388961588827640000",17.506208913315614,78.38896158882764
555,3,3,E,10,Full,Kokapet,False,True,True,4700,BOTH,3,2069,30000,19,BHK3,CORPORATION,"17.392495200000000000,78.344308300000000000",17.3924952,78.3443083
556,0,4,E,2,Full,Liverpool Residency,False,True,False,3000,BOTH,5,3000,60000,3,BHK4,None,"17.444774000000000000,78.411773099999990000",17.444774,78.41177309999999
557,0,2,None,1,Unfurnished,Boduppal,False,False,False,0,TWO_WHEELER,0,1000,10000,2,BHK2,None,"17.416045274920045000,78.589931198164920000",17.416045274920045,78.58993119816492
558,1,2,E,20,Semi,Puppalguda,True,False,True,0,BOTH,0,1314,28500,30,BHK2,CORPORATION,"17.398790601277760000,78.355477387731510000",17.39879060127776,78.35547738773151
559,2,3,W,2,Semi,Madinaguda,True,True,True,3500,BOTH,5,1685,30000,14,BHK3,CORPORATION,"17.492663999999998000,78.336015000000000000",17.492663999999998,78.336015
560,0,2,None,0,Unfurnished,Chanda Nagar,False,False,False,0,BOTH,5,850,12500,2,BHK2,None,"17.491100926026846000,78.333805990696930000",17.491100926026846,78.33380599069693
561,0,1,None,3,Unfurnished,Kondapur,False,False,True,0,TWO_WHEELER,0,400,10000,5,BHK1,None,"17.462139413140598000,78.355796912303150000",17.462139413140598,78.35579691230315
562,0,1,None,2,Unfurnished,Kondapur,False,False,False,0,BOTH,1,450,10000,2,BHK1,None,"17.462041708286640000,78.355596438007750000",17.46204170828664,78.35559643800775
563,2,2,W,2,Semi,Ramachandrapuram,False,False,False,0,BOTH,0,1350,12000,2,BHK2,CORP_BORE,"17.505977263873547000,78.313801235581980000",17.505977263873547,78.31380123558198
564,1,2,W,4,Semi,"1-98, Madhapur",False,False,True,0,TWO_WHEELER,5,750,15000,5,BHK1,BOREWELL,"17.450844117518542000,78.385347906745890000",17.450844117518542,78.38534790674589
565,4,3,W,0,Semi,Kokapet,False,True,True,2000,BOTH,0,1680,38000,17,BHK3,CORP_BORE,"17.399530000000000000,78.342529000000000000",17.39953,78.342529
566,1,1,E,3,Full,Kondapur,False,True,True,100,BOTH,0,200,8000,3,RK1,CORP_BORE,"17.461787207126882000,78.351934107894580000",17.461787207126882,78.35193410789458
567,1,1,E,3,Full,Kondapur,False,True,True,100,BOTH,0,200,8000,3,RK1,CORP_BORE,"17.461787207126882000,78.351934107894580000",17.461787207126882,78.35193410789458
568,0,2,None,0,Unfurnished,Chanda Nagar,False,False,False,0,TWO_WHEELER,5,700,8500,2,BHK2,None,"17.490560388095666000,78.325921500722150000",17.490560388095666,78.32592150072215
569,2,2,E,2,Semi,Khajaguda,False,True,True,1000,BOTH,0,1200,18000,4,BHK2,CORPORATION,"17.413304262036390000,78.372473182389510000",17.41330426203639,78.37247318238951
570,1,2,E,3,Unfurnished,Kukatpally,False,False,False,0,TWO_WHEELER,10,1200,11000,3,BHK2,CORPORATION,"17.487776666666665000,78.390508333333340000",17.487776666666665,78.39050833333334
571,1,1,N,0,Unfurnished,Gachibowli,False,False,False,0,TWO_WHEELER,3,750,13500,2,BHK1,CORP_BORE,"17.440080200000000000,78.348916800000000000",17.4400802,78.3489168
572,2,2,DK,4,Semi,Nanakaramguda,True,True,True,4500,FOUR_WHEELER,5,1185,25000,4,BHK3,CORPORATION,"17.423441796248294000,78.341291944094050000",17.423441796248294,78.34129194409405
573,0,1,None,2,Semi,Pragathi Nagar,False,False,False,0,TWO_WHEELER,1,600,9500,5,BHK1,None,"17.515435380191008000,78.393348132445210000",17.515435380191008,78.39334813244521
574,1,1,N,2,Semi,Nagole,False,True,False,500,TWO_WHEELER,1,500,4000,2,RK1,CORP_BORE,"17.381509088634832000,78.561091682209070000",17.381509088634832,78.56109168220907
575,2,3,E,3,Full,Narsingi,False,True,True,3500,BOTH,3,1505,32000,5,BHK3,BOREWELL,"17.393779700000000000,78.357855300000000000",17.3937797,78.3578553
576,1,3,None,5,Semi,Gachibowli,False,True,True,3750,BOTH,5,1500,30000,7,BHK3,CORP_BORE,"17.442648000000000000,78.367460000000000000",17.442648,78.36746
577,3,3,NW,5,Semi,Masjid Banda,False,True,True,2200,FOUR_WHEELER,10,1840,30000,5,BHK3,CORP_BORE,"17.464768362094070000,78.345149425610740000",17.46476836209407,78.34514942561074
578,0,2,E,1,Semi,Borabanda,False,False,True,0,BOTH,1,1150,20000,5,BHK2,None,"17.454265786545360000,78.419103628207040000",17.45426578654536,78.41910362820704
579,0,2,None,0,Unfurnished,Balkampet,False,False,False,0,BOTH,0,1200,8000,2,BHK1,None,"17.442138940140403000,78.452443588954940000",17.442138940140403,78.45244358895494
580,3,3,E,13,Semi,Ranga Reddy District,False,True,True,5000,FOUR_WHEELER,1,1800,21000,25,BHK3,CORP_BORE,"17.391651000000000000,78.344810000000000000",17.391651,78.34481
581,2,3,W,8,Semi,Serilingampally,True,True,True,3500,BOTH,0,1300,22000,10,BHK2,CORP_BORE,"17.472978590000000000,78.310180660000000000",17.47297859,78.31018066
582,0,1,None,0,Unfurnished,Gachibowli,False,False,False,0,TWO_WHEELER,10,100,5000,1,RK1,None,"17.465214583807672000,78.344061057672140000",17.465214583807672,78.34406105767214
583,1,1,N,3,Unfurnished, Sanjeeva Reddy Nagar,False,False,False,0,NONE,3,500,8000,3,BHK1,CORPORATION,"17.446658394186738000,78.446310955819630000",17.446658394186738,78.44631095581963
584,1,2,DK,4,Semi,,False,True,False,750,BOTH,3,1000,12000,4,BHK2,BOREWELL,"17.390289716110217000,78.434369377791880000",17.390289716110217,78.43436937779188
585,1,1,E,2,Unfurnished,RTC Cross Road,False,False,False,0,TWO_WHEELER,3,500,13000,2,BHK1,CORPORATION,"17.407325382053592000,78.495824098826220000",17.407325382053592,78.49582409882622
586,3,2,N,2,Semi,Manikonda,False,True,True,1000,BOTH,0,1150,16000,5,BHK2,CORP_BORE,"17.402480034725954000,78.377098715938570000",17.402480034725954,78.37709871593857
587,1,3,S,0,Semi,Uppal Kalan,False,False,False,0,BOTH,10,2200,15000,1,BHK3,CORP_BORE,"17.413785301357024000,78.556279577299390000",17.413785301357024,78.55627957729939
588,1,3,S,0,Semi,Uppal Kalan,False,False,False,0,BOTH,10,2200,15000,1,BHK3,CORP_BORE,"17.413785301357024000,78.556279577299390000",17.413785301357024,78.55627957729939
589,0,1,None,2,Semi,Uppal,False,False,False,0,TWO_WHEELER,5,900,8000,3,BHK2,None,"17.401012923105345000,78.565225299466430000",17.401012923105345,78.56522529946643
590,1,1,E,1,Unfurnished,Gopanapalli Thanda,False,True,True,500,TWO_WHEELER,0,600,9000,5,BHK1,BOREWELL,"17.448950155955880000,78.303678127066390000",17.44895015595588,78.30367812706639
591,2,3,N,3,Semi,Kukatpally Housing Board - Hitech City Road,False,True,True,3900,BOTH,10,1500,28000,11,BHK3,CORP_BORE,"17.479050800000000000,78.391779800000000000",17.4790508,78.3917798
592,1,1,E,1,Unfurnished,Kukatpally,False,True,True,1000,TWO_WHEELER,3,600,10000,9,BHK2,CORP_BORE,"17.471079695319910000,78.392031317226330000",17.47107969531991,78.39203131722633
593,1,2,None,3,Full,Madhapur,False,True,True,2000,FOUR_WHEELER,10,1100,27000,5,BHK2,CORP_BORE,"17.442466594082312000,78.392637862635040000",17.442466594082312,78.39263786263504
594,2,1,NE,2,Unfurnished, Banjara Hills,False,False,True,0,BOTH,1,1000,10000,4,BHK1,CORP_BORE,"17.408676375065657000,78.445679247347930000",17.408676375065657,78.44567924734793
595,2,2,E,2,Semi,Chikkadapalli,False,True,False,150,BOTH,10,1000,16000,3,BHK2,CORP_BORE,"17.420542614194158000,78.493340197153200000",17.420542614194158,78.4933401971532
596,2,1,NE,2,Semi,Attapur,False,False,False,0,BOTH,0,1200,6500,3,BHK1,CORP_BORE,"17.369404363583440000,78.438379615545270000",17.36940436358344,78.43837961554527
597,1,2,S,3,Unfurnished,Begumpet,False,True,False,2000,BOTH,10,1500,18000,5,BHK3,CORPORATION,"17.441147800000000000,78.479856400000000000",17.4411478,78.4798564
598,3,3,E,3,Semi,Madhapur,False,True,True,4500,BOTH,10,2225,32000,5,BHK3,CORP_BORE,"17.455526000000000000,78.371003000000000000",17.455526,78.371003
599,1,2,None,0,Semi,Vijaya Nagar Colony,False,True,False,1000,TWO_WHEELER,10,2000,20000,1,BHK2,CORPORATION,"17.392627692336735000,78.455541150550230000",17.392627692336735,78.45554115055023
600,0,2,E,0,Unfurnished,Manikonda,False,False,False,0,FOUR_WHEELER,10,1100,12000,2,BHK2,CORPORATION,"17.401792258064443000,78.376829577909800000",17.401792258064443,78.3768295779098
601,3,3,NW,7,Full,Kokapet,True,True,True,4750,BOTH,3,1800,21000,19,BHK3,CORPORATION,"17.392495200000000000,78.344308300000000000",17.3924952,78.3443083
602,1,3,E,0,Full,BSR Colony,False,True,False,300,BOTH,0,1200,12000,0,BHK2,CORP_BORE,"17.541249847352685000,78.295146971941000000",17.541249847352685,78.295146971941
603,0,2,E,1,Unfurnished,Malkajgiri ,False,False,False,0,TWO_WHEELER,10,900,8000,1,BHK2,CORPORATION,"17.404882495785603000,78.449821386230450000",17.404882495785603,78.44982138623045
604,1,1,E,2,Unfurnished,Kukatpally,False,False,False,0,BOTH,5,750,6500,2,BHK1,CORP_BORE,"17.491459931018912000,78.417649469311500000",17.491459931018912,78.4176494693115
605,1,2,N,2,Semi,Miyapur,False,True,False,1200,BOTH,10,1350,15000,5,BHK3,CORP_BORE,"17.499665600000000000,78.359817600000000000",17.4996656,78.3598176
606,0,1,None,1,Semi,Kukatpally,False,False,False,0,TWO_WHEELER,10,550,8500,3,BHK1,None,"17.503187592570250000,78.395998500000030000",17.50318759257025,78.39599850000003
607,2,2,DK,4,Semi,Aparna Hillpark Avenues,False,True,True,2000,BOTH,0,1500,20000,4,BHK3,CORP_BORE,"17.503499600000000000,78.331881799999990000",17.5034996,78.33188179999999
608,2,2,SE,4,Semi,Gachibowli,False,True,True,2400,BOTH,10,1300,20000,5,BHK3,CORP_BORE,"17.444007500000000000,78.359284899999990000",17.4440075,78.35928489999999
609,2,2,SE,4,Semi,Gachibowli,False,True,True,2400,BOTH,10,1300,20000,5,BHK3,CORP_BORE,"17.444007500000000000,78.359284899999990000",17.4440075,78.35928489999999
610,2,2,E,2,Semi, West Marredpally,False,True,False,2000,BOTH,5,1200,16000,3,BHK2,None,"17.455099649904945000,78.504127264022830000",17.455099649904945,78.50412726402283
611,1,3,W,18,Full,Gachibowli,True,True,True,5500,BOTH,5,1850,34000,20,BHK3,CORP_BORE,"17.463264000000000000,78.311551999999990000",17.463264,78.31155199999999
